rosbagTimestamp,position,x,y,z,orientation,x,y,z,w
1675249743288077935,,9.53322812357,0.432392242034,0.0,,0.0,0.0,0.463277298363,0.886213374319
1675249743387991711,,9.53322812357,0.432392242034,0.0,,0.0,0.0,0.463277298363,0.886213374319
1675249743477903987,,9.53322812357,0.432392242034,0.0,,0.0,0.0,0.463277298363,0.886213374319
1675249743577845428,,9.53322812357,0.432392242034,0.0,,0.0,0.0,0.463277298363,0.886213374319
1675249743677962545,,9.53322812357,0.432392242034,0.0,,0.0,0.0,0.463277298363,0.886213374319
1675249743798246013,,9.53322812357,0.432392242034,0.0,,0.0,0.0,0.463277298363,0.886213374319
1675249743887963490,,9.53322812357,0.432392242034,0.0,,0.0,0.0,0.463277298363,0.886213374319
1675249743987905941,,9.53322812357,0.432392242034,0.0,,0.0,0.0,0.463277298363,0.886213374319
1675249744088313575,,9.53322812357,0.432392242034,0.0,,0.0,0.0,0.463277298363,0.886213374319
1675249744188341337,,9.53322812357,0.432392242034,0.0,,0.0,0.0,0.463277298363,0.886213374319
1675249744278105662,,9.53322812357,0.432392242034,0.0,,0.0,0.0,0.463277298363,0.886213374319
1675249744377989192,,9.53322812357,0.432392242034,0.0,,0.0,0.0,0.463277298363,0.886213374319
1675249744498902595,,9.53322812357,0.432392242034,0.0,,0.0,0.0,0.463277298363,0.886213374319
1675249744598270780,,9.53322812357,0.432392242034,0.0,,0.0,0.0,0.463277298363,0.886213374319
1675249744687870311,,9.53322812357,0.432392242034,0.0,,0.0,0.0,0.463277298363,0.886213374319
1675249744787918072,,9.53322812357,0.432392242034,0.0,,0.0,0.0,0.463277298363,0.886213374319
1675249744888536648,,9.53322812357,0.432392242034,0.0,,0.0,0.0,0.463277298363,0.886213374319
1675249744978006627,,9.53322812357,0.432392242034,0.0,,0.0,0.0,0.463277298363,0.886213374319
1675249745078067507,,9.53322812357,0.432392242034,0.0,,0.0,0.0,0.463277298363,0.886213374319
1675249745177805654,,9.53322812357,0.432392242034,0.0,,0.0,0.0,0.463277298363,0.886213374319
1675249745298113288,,9.53322812357,0.432392242034,0.0,,0.0,0.0,0.463277298363,0.886213374319
1675249745387902175,,9.53322812357,0.432392242034,0.0,,0.0,0.0,0.463277298363,0.886213374319
1675249745488281414,,9.53322812357,0.432392242034,0.0,,0.0,0.0,0.463277298363,0.886213374319
1675249745587895451,,9.53322812357,0.432392242034,0.0,,0.0,0.0,0.463277298363,0.886213374319
1675249745678605365,,9.53322812357,0.432392242034,0.0,,0.0,0.0,0.463277298363,0.886213374319
1675249745778005958,,9.53322812357,0.432392242034,0.0,,0.0,0.0,0.463277298363,0.886213374319
1675249745878216368,,9.53322812357,0.432392242034,0.0,,0.0,0.0,0.463277298363,0.886213374319
1675249745978132577,,9.53322812357,0.432392242034,0.0,,0.0,0.0,0.463277298363,0.886213374319
1675249746098406770,,9.53322812357,0.432392242034,0.0,,0.0,0.0,0.463277298363,0.886213374319
1675249746188076237,,9.53322812357,0.432392242034,0.0,,0.0,0.0,0.463277298363,0.886213374319
1675249746289275216,,9.53322812357,0.432392242034,0.0,,0.0,0.0,0.463277298363,0.886213374319
1675249746388005892,,9.53322812357,0.432392242034,0.0,,0.0,0.0,0.463277298363,0.886213374319
1675249746477921172,,9.53322812357,0.432392242034,0.0,,0.0,0.0,0.463277298363,0.886213374319
1675249746578453717,,9.53322812357,0.432392242034,0.0,,0.0,0.0,0.463277298363,0.886213374319
1675249746678000357,,9.53322812357,0.432392242034,0.0,,0.0,0.0,0.463277298363,0.886213374319
1675249746797981427,,9.53322812357,0.432392242034,0.0,,0.0,0.0,0.463277298363,0.886213374319
1675249746898156115,,9.53322812357,0.432392242034,0.0,,0.0,0.0,0.463277298363,0.886213374319
1675249746988156165,,9.53322812357,0.432392242034,0.0,,0.0,0.0,0.463277298363,0.886213374319
1675249747088199181,,9.53322812357,0.432392242034,0.0,,0.0,0.0,0.463277298363,0.886213374319
1675249747188193586,,9.53322812357,0.432392242034,0.0,,0.0,0.0,0.463277298363,0.886213374319
1675249747277828697,,9.53322812357,0.432392242034,0.0,,0.0,0.0,0.463277298363,0.886213374319
1675249747378074085,,9.53322812357,0.432392242034,0.0,,0.0,0.0,0.463277298363,0.886213374319
1675249747478010106,,9.53322812357,0.432392242034,0.0,,0.0,0.0,0.463277298363,0.886213374319
1675249747598385390,,9.53322812357,0.432392242034,0.0,,0.0,0.0,0.463277298363,0.886213374319
1675249747687942655,,9.53322812357,0.432392242034,0.0,,0.0,0.0,0.463277298363,0.886213374319
1675249747788106225,,9.53322812357,0.432392242034,0.0,,0.0,0.0,0.463277298363,0.886213374319
1675249747888029853,,9.53322812357,0.432392242034,0.0,,0.0,0.0,0.463277298363,0.886213374319
1675249747988275719,,9.53322812357,0.432392242034,0.0,,0.0,0.0,0.463277298363,0.886213374319
1675249748077911861,,9.53322812357,0.432392242034,0.0,,0.0,0.0,0.463277298363,0.886213374319
1675249748178280997,,9.53322812357,0.432392242034,0.0,,0.0,0.0,0.463277298363,0.886213374319
1675249748298641348,,9.53322812357,0.432392242034,0.0,,0.0,0.0,0.463277298363,0.886213374319
1675249748398465962,,9.53322812357,0.432392242034,0.0,,0.0,0.0,0.463277298363,0.886213374319
1675249748488073598,,9.53322812357,0.432392242034,0.0,,0.0,0.0,0.463277298363,0.886213374319
1675249748588224251,,9.53322812357,0.432392242034,0.0,,0.0,0.0,0.463277298363,0.886213374319
1675249748688010083,,9.53322812357,0.432392242034,0.0,,0.0,0.0,0.463277298363,0.886213374319
1675249748779936649,,9.53322812357,0.432392242034,0.0,,0.0,0.0,0.463277298363,0.886213374319
1675249748878750677,,9.53322812357,0.432392242034,0.0,,0.0,0.0,0.463277298363,0.886213374319
1675249748978058145,,9.53322812357,0.432392242034,0.0,,0.0,0.0,0.463277298363,0.886213374319
1675249749098205256,,9.53322812357,0.432392242034,0.0,,0.0,0.0,0.463277298363,0.886213374319
1675249749188404330,,9.53322812357,0.432392242034,0.0,,0.0,0.0,0.463277298363,0.886213374319
1675249749288195935,,9.53322812357,0.432392242034,0.0,,0.0,0.0,0.463277298363,0.886213374319
1675249749387989037,,9.53322812357,0.432392242034,0.0,,0.0,0.0,0.463277298363,0.886213374319
1675249749488311040,,9.53322812357,0.432392242034,0.0,,0.0,0.0,0.463277298363,0.886213374319
1675249749577993911,,9.53322812357,0.432392242034,0.0,,0.0,0.0,0.463277298363,0.886213374319
1675249749678013526,,9.53322812357,0.432392242034,0.0,,0.0,0.0,0.463277298363,0.886213374319
1675249749797945269,,9.53322812357,0.432392242034,0.0,,0.0,0.0,0.463277298363,0.886213374319
1675249749898156660,,9.53322812357,0.432392242034,0.0,,0.0,0.0,0.463277298363,0.886213374319
1675249749987913633,,9.53322812357,0.432392242034,0.0,,0.0,0.0,0.463277298363,0.886213374319
1675249750088184663,,9.53322812357,0.432392242034,0.0,,0.0,0.0,0.463277298363,0.886213374319
1675249750188436380,,9.53322812357,0.432392242034,0.0,,0.0,0.0,0.463277298363,0.886213374319
1675249750278214222,,9.53322812357,0.432392242034,0.0,,0.0,0.0,0.463277298363,0.886213374319
1675249750378492044,,9.53322812357,0.432392242034,0.0,,0.0,0.0,0.463277298363,0.886213374319
1675249750478066042,,9.53322812357,0.432392242034,0.0,,0.0,0.0,0.463277298363,0.886213374319
1675249750598091886,,9.53322812357,0.432392242034,0.0,,0.0,0.0,0.463277298363,0.886213374319
1675249750687891833,,9.53322812357,0.432392242034,0.0,,0.0,0.0,0.463277298363,0.886213374319
1675249750788017987,,9.53322812357,0.432392242034,0.0,,0.0,0.0,0.463277298363,0.886213374319
1675249750888394417,,9.53322812357,0.432392242034,0.0,,0.0,0.0,0.463277298363,0.886213374319
1675249750977828114,,9.53322812357,0.432392242034,0.0,,0.0,0.0,0.463277298363,0.886213374319
1675249751078260609,,9.53322812357,0.432392242034,0.0,,0.0,0.0,0.463277298363,0.886213374319
1675249751178069953,,9.53322812357,0.432392242034,0.0,,0.0,0.0,0.463277298363,0.886213374319
1675249751298488490,,9.53322812357,0.432392242034,0.0,,0.0,0.0,0.463277298363,0.886213374319
1675249751397963835,,9.53322812357,0.432392242034,0.0,,0.0,0.0,0.463277298363,0.886213374319
1675249751488556087,,9.53322812357,0.432392242034,0.0,,0.0,0.0,0.463277298363,0.886213374319
1675249751588177273,,9.53322812357,0.432392242034,0.0,,0.0,0.0,0.463277298363,0.886213374319
1675249751687998741,,9.53322812357,0.432392242034,0.0,,0.0,0.0,0.463277298363,0.886213374319
1675249751777801628,,9.53322812357,0.432392242034,0.0,,0.0,0.0,0.463277298363,0.886213374319
1675249751878248232,,9.53322812357,0.432392242034,0.0,,0.0,0.0,0.463277298363,0.886213374319
1675249751978045914,,9.53322812357,0.432392242034,0.0,,0.0,0.0,0.463277298363,0.886213374319
1675249752098108540,,9.53322812357,0.432392242034,0.0,,0.0,0.0,0.463277298363,0.886213374319
1675249752198695665,,9.53322812357,0.432392242034,0.0,,0.0,0.0,0.463277298363,0.886213374319
1675249752289485066,,9.53322812357,0.432392242034,0.0,,0.0,0.0,0.463277298363,0.886213374319
1675249752387956018,,9.53322812357,0.432392242034,0.0,,0.0,0.0,0.463277298363,0.886213374319
1675249752488225310,,9.53322812357,0.432392242034,0.0,,0.0,0.0,0.463277298363,0.886213374319
1675249752577865814,,9.53322812357,0.432392242034,0.0,,0.0,0.0,0.463277298363,0.886213374319
1675249752678167903,,9.53322812357,0.432392242034,0.0,,0.0,0.0,0.463277298363,0.886213374319
1675249752798336485,,9.53322812357,0.432392242034,0.0,,0.0,0.0,0.463277298363,0.886213374319
1675249752898043707,,9.53322812357,0.432392242034,0.0,,0.0,0.0,0.463277298363,0.886213374319
1675249752987859944,,9.53322812357,0.432392242034,0.0,,0.0,0.0,0.463277298363,0.886213374319
1675249753088157518,,9.53322812357,0.432392242034,0.0,,0.0,0.0,0.463277298363,0.886213374319
1675249753190098965,,9.53322812357,0.432392242034,0.0,,0.0,0.0,0.463277298363,0.886213374319
1675249753278297862,,9.53322812357,0.432392242034,0.0,,0.0,0.0,0.463277298363,0.886213374319
1675249753377899805,,9.53322812357,0.432392242034,0.0,,0.0,0.0,0.463277298363,0.886213374319
1675249753478061123,,9.53322812357,0.432392242034,0.0,,0.0,0.0,0.463277298363,0.886213374319
1675249753598147266,,9.53322812357,0.432392242034,0.0,,0.0,0.0,0.463277298363,0.886213374319
1675249753698341973,,9.53322812357,0.432392242034,0.0,,0.0,0.0,0.463277298363,0.886213374319
1675249753788639175,,9.53322812357,0.432392242034,0.0,,0.0,0.0,0.463277298363,0.886213374319
1675249753888286780,,9.53322812357,0.432392242034,0.0,,0.0,0.0,0.463277298363,0.886213374319
1675249753987989734,,9.53322812357,0.432392242034,0.0,,0.0,0.0,0.463277298363,0.886213374319
1675249754078055532,,9.53322812357,0.432392242034,0.0,,0.0,0.0,0.463277298363,0.886213374319
1675249754178008588,,9.53322812357,0.432392242034,0.0,,0.0,0.0,0.463277298363,0.886213374319
1675249754278051619,,9.53322812357,0.432392242034,0.0,,0.0,0.0,0.463277298363,0.886213374319
1675249754397997840,,9.53322812357,0.432392242034,0.0,,0.0,0.0,0.463277298363,0.886213374319
1675249754488045062,,9.53322812357,0.432392242034,0.0,,0.0,0.0,0.463277298363,0.886213374319
1675249754587998821,,9.53322812357,0.432392242034,0.0,,0.0,0.0,0.463277298363,0.886213374319
1675249754687932919,,9.53322812357,0.432392242034,0.0,,0.0,0.0,0.463277298363,0.886213374319
1675249754778364479,,9.53322812357,0.432392242034,0.0,,0.0,0.0,0.463277298363,0.886213374319
1675249754878052357,,9.53322812357,0.432392242034,0.0,,0.0,0.0,0.463277298363,0.886213374319
1675249754978109724,,9.53322812357,0.432392242034,0.0,,0.0,0.0,0.463277298363,0.886213374319
1675249755098370335,,9.53322812357,0.432392242034,0.0,,0.0,0.0,0.463277298363,0.886213374319
1675249755198030842,,9.53322812357,0.432392242034,0.0,,0.0,0.0,0.463277298363,0.886213374319
1675249755288376079,,9.53322812357,0.432392242034,0.0,,0.0,0.0,0.463277298363,0.886213374319
1675249755388151727,,9.53322812357,0.432392242034,0.0,,0.0,0.0,0.463277298363,0.886213374319
1675249755487997823,,9.53322812357,0.432392242034,0.0,,0.0,0.0,0.463277298363,0.886213374319
1675249755578055517,,9.53322812357,0.432392242034,0.0,,0.0,0.0,0.463277298363,0.886213374319
1675249755677935427,,9.53322812357,0.432392242034,0.0,,0.0,0.0,0.463277298363,0.886213374319
1675249755778153783,,9.53322812357,0.432392242034,0.0,,0.0,0.0,0.463277298363,0.886213374319
1675249755898222852,,9.53322812357,0.432392242034,0.0,,0.0,0.0,0.463277298363,0.886213374319
1675249755988495169,,9.53322812357,0.432392242034,0.0,,0.0,0.0,0.463277298363,0.886213374319
1675249756088143175,,9.53322812357,0.432392242034,0.0,,0.0,0.0,0.463277298363,0.886213374319
1675249756188032470,,9.53322812357,0.432392242034,0.0,,0.0,0.0,0.463277298363,0.886213374319
1675249756277758109,,9.53322812357,0.432392242034,0.0,,0.0,0.0,0.463277298363,0.886213374319
1675249756378276792,,9.53322812357,0.432392242034,0.0,,0.0,0.0,0.463277298363,0.886213374319
1675249756478013318,,9.53322812357,0.432392242034,0.0,,0.0,0.0,0.463277298363,0.886213374319
1675249756598470091,,9.53322812357,0.432392242034,0.0,,0.0,0.0,0.463277298363,0.886213374319
1675249756698209813,,9.53322812357,0.432392242034,0.0,,0.0,0.0,0.463277298363,0.886213374319
1675249756788095482,,9.53322812357,0.432392242034,0.0,,0.0,0.0,0.463277298363,0.886213374319
1675249756888122208,,9.53322812357,0.432392242034,0.0,,0.0,0.0,0.463277298363,0.886213374319
1675249756988184413,,9.53322812357,0.432392242034,0.0,,0.0,0.0,0.463277298363,0.886213374319
1675249757077855525,,9.53322812357,0.432392242034,0.0,,0.0,0.0,0.463277298363,0.886213374319
1675249757178426891,,9.53322812357,0.432392242034,0.0,,0.0,0.0,0.463277298363,0.886213374319
1675249757277913728,,9.53322812357,0.432392242034,0.0,,0.0,0.0,0.463277298363,0.886213374319
1675249757398562923,,9.53322812357,0.432392242034,0.0,,0.0,0.0,0.463277298363,0.886213374319
1675249757488229368,,9.53322812357,0.432392242034,0.0,,0.0,0.0,0.463277298363,0.886213374319
1675249757587976786,,9.53322812357,0.432392242034,0.0,,0.0,0.0,0.463277298363,0.886213374319
1675249757688073462,,9.53322812357,0.432392242034,0.0,,0.0,0.0,0.463277298363,0.886213374319
1675249757778180637,,9.53322812357,0.432392242034,0.0,,0.0,0.0,0.463277298363,0.886213374319
1675249757878188096,,9.53322812357,0.432392242034,0.0,,0.0,0.0,0.463277298363,0.886213374319
1675249757978114169,,9.53322812357,0.432392242034,0.0,,0.0,0.0,0.463277298363,0.886213374319
1675249758078078478,,9.53322812357,0.432392242034,0.0,,0.0,0.0,0.463277298363,0.886213374319
1675249758198391699,,9.53322812357,0.432392242034,0.0,,0.0,0.0,0.463277298363,0.886213374319
1675249758288804918,,9.53322812357,0.432392242034,0.0,,0.0,0.0,0.463277298363,0.886213374319
1675249758387964649,,9.53322812357,0.432392242034,0.0,,0.0,0.0,0.463277298363,0.886213374319
1675249758488414844,,9.53322812357,0.432392242034,0.0,,0.0,0.0,0.463277298363,0.886213374319
1675249758579216537,,9.53322812357,0.432392242034,0.0,,0.0,0.0,0.463277298363,0.886213374319
1675249758678391687,,9.53322812357,0.432392242034,0.0,,0.0,0.0,0.463277298363,0.886213374319
1675249758777867800,,9.53322812357,0.432392242034,0.0,,0.0,0.0,0.463277298363,0.886213374319
1675249758898398496,,9.53322812357,0.432392242034,0.0,,0.0,0.0,0.463277298363,0.886213374319
1675249758988036851,,9.53322812357,0.432392242034,0.0,,0.0,0.0,0.463277298363,0.886213374319
1675249759087937965,,9.53322812357,0.432392242034,0.0,,0.0,0.0,0.463277298363,0.886213374319
1675249759187926120,,9.53322812357,0.432392242034,0.0,,0.0,0.0,0.463277298363,0.886213374319
1675249759287894547,,9.53323654453,0.432404355704,0.0,,0.0,0.0,0.463248308354,0.886228528545
1675249759377886698,,9.5341642724,0.433736934942,0.0,,0.0,0.0,0.462161754173,0.886795643302
1675249759477944376,,9.53727540299,0.438166661667,0.0,,0.0,0.0,0.458360755628,0.888766233439
1675249759597991320,,9.54157229465,0.444201033129,0.0,,0.0,0.0,0.45650964474,0.889718463481
1675249759698189323,,9.54774326432,0.452747491951,0.0,,0.0,0.0,0.45086287396,0.892593226999
1675249759788030680,,9.55536548937,0.463075402787,0.0,,0.0,0.0,0.447701931195,0.89418285647
1675249759888134013,,9.5647136054,0.475479972258,0.0,,0.0,0.0,0.441114394628,0.897450884925
1675249759987937981,,9.5743838073,0.487987913253,0.0,,0.0,0.0,0.436345416347,0.899779238276
1675249760077782854,,9.60431536586,0.484631348727,0.0,,0.0,0.0,0.431276131957,0.902219983155
1675249760177967029,,9.60491223406,0.485376093517,0.0,,0.0,0.0,0.431552823148,0.902087668042
1675249760277985748,,9.60468772566,0.485097137952,0.0,,0.0,0.0,0.431845919608,0.901947394097
1675249760398690226,,9.60461613205,0.485008160432,0.0,,0.0,0.0,0.432155231465,0.9017992326
1675249760498358563,,9.60461613205,0.485008160432,0.0,,0.0,0.0,0.431787962875,0.901975141074
1675249760587977537,,9.60461613205,0.485008160432,0.0,,0.0,0.0,0.431885155888,0.901928606999
1675249760687883784,,9.60461613205,0.485008160432,0.0,,0.0,0.0,0.431885155888,0.901928606999
1675249760787949459,,9.60461613205,0.485008160432,0.0,,0.0,0.0,0.431885155888,0.901928606999
1675249760877794360,,9.60461613205,0.485008160432,0.0,,0.0,0.0,0.431885155888,0.901928606999
1675249760978412477,,9.60461613205,0.485008160432,0.0,,0.0,0.0,0.431885155888,0.901928606999
1675249761098667308,,9.60461613205,0.485008160432,0.0,,0.0,0.0,0.431885155888,0.901928606999
1675249761198142031,,9.60474327922,0.485166174128,0.0,,0.0,0.0,0.432022838028,0.9018626655
1675249761288365270,,9.60542511,0.486015691332,0.0,,0.0,0.0,0.43421398376,0.90080975589
1675249761388070319,,9.60649406639,0.487362714489,0.0,,0.0,0.0,0.438794123432,0.898587623575
1675249761488041534,,9.6078804994,0.48915440714,0.0,,0.0,0.0,0.446402338872,0.894832359635
1675249761577925467,,9.60986399075,0.491816893527,0.0,,0.0,0.0,0.457613048397,0.889151448256
1675249761678195286,,9.61219416361,0.495122111606,0.0,,0.0,0.0,0.470827516368,0.882225282924
1675249761777856696,,9.61491453446,0.499228791604,0.0,,0.0,0.0,0.485490632934,0.874241868897
1675249761898347698,,9.61792861205,0.504148598856,0.0,,0.0,0.0,0.50280302937,0.864401014377
1675249761988997864,,9.62131307332,0.510218716279,0.0,,0.0,0.0,0.521620743873,0.853177472488
1675249762087887817,,9.61715917574,0.526088502722,0.0,,0.0,0.0,0.543257211328,0.839566318012
1675249762187936921,,9.62065295966,0.534041548523,0.0,,0.0,0.0,0.565581736931,0.824692244931
1675249762288090836,,9.62384011611,0.542539264629,0.0,,0.0,0.0,0.587829318809,0.808984976343
1675249762377912094,,9.6266567426,0.55144974873,0.0,,0.0,0.0,0.608828035115,0.793302227186
1675249762477777489,,9.61789655572,0.559901409472,0.0,,0.0,0.0,0.628321799827,0.777953543512
1675249762578437733,,9.61973826865,0.568800251452,0.0,,0.0,0.0,0.648789520634,0.760967908598
1675249762698161319,,9.62112303388,0.577951989882,0.0,,0.0,0.0,0.66866250928,0.743566035187
1675249762787931218,,9.62204326044,0.5872625879,0.0,,0.0,0.0,0.687796096688,0.725903939499
1675249762887921389,,9.62239172762,0.592749956156,0.0,,0.0,0.0,0.705350571015,0.708858640329
1675249762988493613,,9.62235591993,0.602059652716,0.0,,0.0,0.0,0.723304468448,0.690529250592
1675249763078168282,,9.62189183614,0.611105237409,0.0,,0.0,0.0,0.736881558437,0.676021870087
1675249763177984445,,9.62106609703,0.620113681737,0.0,,0.0,0.0,0.749683788327,0.661796205428
1675249763277892107,,9.619747053,0.630085884143,0.0,,0.0,0.0,0.764342073643,0.644810975759
1675249763398249913,,9.61112372178,0.646181144239,0.0,,0.0,0.0,0.779767616893,0.62606905661
1675249763498826157,,9.60830105431,0.658323620718,0.0,,0.0,0.0,0.796135051705,0.605118979579
1675249763588002154,,9.60439903799,0.671804699903,0.0,,0.0,0.0,0.813102051895,0.582121167116
1675249763687979777,,9.59926234481,0.686413012537,0.0,,0.0,0.0,0.82984947204,0.557987324009
1675249763788014177,,9.59309612307,0.7082659445,0.0,,0.0,0.0,0.847870669143,0.530203101092
1675249763877881415,,9.5850161991,0.724494723415,0.0,,0.0,0.0,0.864079676681,0.503355055946
1675249763978574665,,9.57572887487,0.740564915039,0.0,,0.0,0.0,0.878675036221,0.477420339662
1675249764078176027,,9.55875869806,0.759863681052,0.0,,0.0,0.0,0.891413023166,0.453191816044
1675249764198117970,,9.54769367788,0.774778893158,0.0,,0.0,0.0,0.902703854679,0.430262420795
1675249764288210607,,9.53587889707,0.789099212951,0.0,,0.0,0.0,0.913475661248,0.406893372161
1675249764388009924,,9.52339123723,0.802767782269,0.0,,0.0,0.0,0.923541986871,0.383497325267
1675249764487942029,,9.50563969783,0.819521515286,0.0,,0.0,0.0,0.933086635593,0.359651679375
1675249764578466632,,9.48985953568,0.833557243082,0.0,,0.0,0.0,0.94312885256,0.33242738676
1675249764678174657,,9.4721505953,0.847528544877,0.0,,0.0,0.0,0.952769867177,0.303693233706
1675249764777817563,,9.45212828856,0.861412906047,0.0,,0.0,0.0,0.961912481885,0.27335759948
1675249764897979043,,9.42275439687,0.879499018225,0.0,,0.0,0.0,0.970187666361,0.242354888628
1675249765001499488,,9.39862885028,0.89200096656,0.0,,0.0,0.0,0.977966120512,0.208763663339
1675249765088026465,,9.37299378455,0.903165904696,0.0,,0.0,0.0,0.984607497944,0.174780076071
1675249765187959511,,9.34464192135,0.918597727045,0.0,,0.0,0.0,0.98953240322,0.14431085537
1675249765288262023,,9.32185257013,0.925251488348,0.0,,0.0,0.0,0.992490584512,0.122321051561
1675249765377844920,,9.30155554704,0.930245602405,0.0,,0.0,0.0,0.994292719333,0.106686401577
1675249765477841813,,9.28411751075,0.933966906494,0.0,,0.0,0.0,0.995524461404,0.0945042154909
1675249765577986247,,9.26959595068,0.936781176594,0.0,,0.0,0.0,0.9957439415,0.0921629153504
1675249765698183675,,9.25511105366,0.939487644044,0.0,,0.0,0.0,0.99588151184,0.0906642949338
1675249765788619091,,9.23718357625,0.942758317554,0.0,,0.0,0.0,0.996188949033,0.0872214298418
1675249765888055736,,9.21725431387,0.946223368445,0.0,,0.0,0.0,0.996691064997,0.081282968421
1675249765987984847,,9.19481368492,0.949864729292,0.0,,0.0,0.0,0.997134038729,0.0756551968306
1675249766087867702,,9.16930615102,0.9536946199,0.0,,0.0,0.0,0.997631260451,0.0687885758765
1675249766177871970,,9.14513457705,0.962247531882,0.0,,0.0,0.0,0.998036439681,0.0626359726502
1675249766277946799,,9.11386053139,0.966095826653,0.0,,0.0,0.0,0.998520910047,0.054369037143
1675249766398806035,,9.07956287285,0.969769120159,0.0,,0.0,0.0,0.998918193021,0.0465020822262
1675249766498194358,,9.04265655519,0.973082369092,0.0,,0.0,0.0,0.999294393332,0.0375594922126
1675249766588059293,,9.00497608749,0.975806301785,0.0,,0.0,0.0,0.999586381672,0.0287587478095
1675249766688015463,,8.96760887775,0.977865425417,0.0,,0.0,0.0,0.999793828062,0.0203052054838
1675249766787896708,,8.93003757346,0.978909099227,0.0,,0.0,0.0,0.999903665421,0.0138801973294
1675249766877822996,,8.89242205436,0.979865417414,0.0,,0.0,0.0,0.999982620612,0.00589563169359
1675249766978209834,,8.85480356677,0.980224979121,0.0,,0.0,0.0,0.999998278749,-0.00185539744607
1675249767077829440,,8.81721538211,0.98000484996,0.0,,0.0,0.0,0.999951469855,-0.00985179853051
1675249767198223672,,8.78094002432,0.979215569737,0.0,,0.0,0.0,0.99984842799,-0.0174103718061
1675249767298238546,,8.751116004,0.972789385115,0.0,,0.0,0.0,0.999735994864,-0.0229769574603
1675249767387930237,,8.72004306096,0.971274812526,0.0,,0.0,0.0,0.999531598879,-0.0306036410127
1675249767488034208,,8.69133795469,0.969456671397,0.0,,0.0,0.0,0.999290756976,-0.0376561153471
1675249767588014024,,8.67020852135,0.967907150815,0.0,,0.0,0.0,0.999363230094,-0.0356810080456
1675249767677808289,,8.65361660634,0.966726344514,0.0,,0.0,0.0,0.999426813291,-0.033853284542
1675249767777823207,,8.6382959901,0.965714188617,0.0,,0.0,0.0,0.999556259038,-0.0297873298113
1675249767877887047,,8.62159421755,0.964788366136,0.0,,0.0,0.0,0.99977488936,-0.0212172242379
1675249767998353184,,8.60310459329,0.964046219153,0.0,,0.0,0.0,0.999909031381,-0.0134881044967
1675249768088005470,,8.58176566702,0.963541518576,0.0,,0.0,0.0,0.999992473594,-0.00387978795484
1675249768187893661,,8.55813880486,0.963416295872,0.0,,0.0,0.0,0.999985788817,0.00533124415159
1675249768287933483,,8.53258372108,0.959705419461,0.0,,0.0,0.0,0.999873804217,0.0158863350182
1675249768377775528,,8.50427808223,0.960704199518,0.0,,0.0,0.0,0.999656012585,0.0262270185556
1675249768477798564,,8.47313681124,0.962491449594,0.0,,0.0,0.0,0.999249189573,0.0387434786373
1675249768578144237,,8.43957358436,0.965222468516,0.0,,0.0,0.0,0.998698972874,0.0509937406089
1675249768698419820,,8.40334870962,0.969084248984,0.0,,0.0,0.0,0.997912487784,0.0645806993269
1675249768798267170,,8.36539137138,0.974163745798,0.0,,0.0,0.0,0.996896443773,0.0787240775941
1675249768887862865,,8.322430398,0.980240293367,0.0,,0.0,0.0,0.995624676983,0.093442509501
1675249768987994830,,8.28046734393,0.98838975217,0.0,,0.0,0.0,0.994077696732,0.1086716746
1675249769088470719,,8.23800626565,0.998079885495,0.0,,0.0,0.0,0.991935631331,0.126742665653
1675249769177861334,,8.19541194879,1.00944216251,0.0,,0.0,0.0,0.989322746403,0.14574122083
1675249769277957698,,8.15188558742,1.02288597575,0.0,,0.0,0.0,0.985937961247,0.167111748755
1675249769378232730,,8.10214552258,1.03736063045,0.0,,0.0,0.0,0.981869073783,0.189560338541
1675249769498072376,,8.05560905407,1.05634496879,0.0,,0.0,0.0,0.977158604624,0.21251132066
1675249769588341537,,8.00812793219,1.07848041579,0.0,,0.0,0.0,0.971778522075,0.235895112358
1675249769687896346,,7.95947623005,1.10406120509,0.0,,0.0,0.0,0.965799240599,0.259291008056
1675249769787990682,,7.91199470762,1.13201734113,0.0,,0.0,0.0,0.959626998505,0.281275707698
1675249769877828356,,7.86850665221,1.16227949725,0.0,,0.0,0.0,0.95318308603,0.302393790458
1675249769978138669,,7.8252960956,1.19309875056,0.0,,0.0,0.0,0.946834410786,0.321721305715
1675249770077819930,,7.7851224123,1.22422016299,0.0,,0.0,0.0,0.940669890886,0.339323085539
1675249770198148444,,7.74794114973,1.25540021157,0.0,,0.0,0.0,0.934429726946,0.356147561272
1675249770298179390,,7.70635224497,1.29204112503,0.0,,0.0,0.0,0.929117000667,0.369785882738
1675249770387841205,,7.6734865984,1.32342562862,0.0,,0.0,0.0,0.923090518969,0.384582752851
1675249770487851145,,7.64102090829,1.3565361965,0.0,,0.0,0.0,0.916172544227,0.400784068053
1675249770588038524,,7.60956390766,1.39099062352,0.0,,0.0,0.0,0.908392657845,0.41811814021
1675249770677867847,,7.5792903779,1.42670079796,0.0,,0.0,0.0,0.900490445692,0.434875795161
1675249770778107809,,7.55059394871,1.46329123833,0.0,,0.0,0.0,0.892517119285,0.451013516188
1675249770877838444,,7.52341705174,1.50060771275,0.0,,0.0,0.0,0.884214385727,0.467081277802
1675249770998187819,,7.50032372793,1.53384039807,0.0,,0.0,0.0,0.877451357594,0.479665628387
1675249771088160049,,7.47563758208,1.57276395867,0.0,,0.0,0.0,0.869199999893,0.494460676076
1675249771187882122,,7.45224346843,1.61252488179,0.0,,0.0,0.0,0.861366883773,0.507983357542
1675249771287861183,,7.42936687959,1.65437019506,0.0,,0.0,0.0,0.853068318452,0.521799237307
1675249771387998916,,7.40742391672,1.69783027177,0.0,,0.0,0.0,0.844907729872,0.53491207502
1675249771477831938,,7.38485295269,1.74950041718,0.0,,0.0,0.0,0.834830001032,0.550507828624
1675249771577944371,,7.36565446669,1.7948771641,0.0,,0.0,0.0,0.826238761444,0.563320076944
1675249771698177513,,7.34801703643,1.84031720864,0.0,,0.0,0.0,0.81778053825,0.575530182753
1675249771798036139,,7.33291948716,1.88291321862,0.0,,0.0,0.0,0.810025186327,0.586395086537
1675249771887910222,,7.31962848606,1.92379551466,0.0,,0.0,0.0,0.803268759089,0.595616739751
1675249771998347836,,7.3142936576,1.95719021096,0.0,,0.0,0.0,0.797791304997,0.602933689282
1675249772087960557,,7.30221108958,2.00061778867,0.0,,0.0,0.0,0.789259346228,0.614060000645
1675249772177813252,,7.29085922942,2.04624517397,0.0,,0.0,0.0,0.780308732539,0.625394501034
1675249772277883504,,7.28038191053,2.09428214232,0.0,,0.0,0.0,0.77022944684,0.6377668847
1675249772377805682,,7.27102636566,2.14473059515,0.0,,0.0,0.0,0.75974839808,0.650217172655
1675249772498071886,,7.26375244234,2.19379160249,0.0,,0.0,0.0,0.748639023861,0.662977836698
1675249772588508695,,7.25746912165,2.24806848585,0.0,,0.0,0.0,0.737123677186,0.675757859393
1675249772687899597,,7.25295201542,2.30415391307,0.0,,0.0,0.0,0.72453899753,0.689233807251
1675249772788198275,,7.2598126822,2.35913609799,0.0,,0.0,0.0,0.7106662623,0.703529291237
1675249772887872330,,7.25959625498,2.41895001203,0.0,,0.0,0.0,0.696191866157,0.717855755355
1675249772978029005,,7.26183262283,2.48011995992,0.0,,0.0,0.0,0.680778394876,0.732489438196
1675249773077895181,,7.26674404359,2.54254892653,0.0,,0.0,0.0,0.664824683885,0.746999424161
1675249773198322006,,7.27682403861,2.60027139724,0.0,,0.0,0.0,0.65088084528,0.759179903085
1675249773298227974,,7.28692113557,2.6626116802,0.0,,0.0,0.0,0.634047506803,0.773294096135
1675249773388777719,,7.29976635695,2.72426159187,0.0,,0.0,0.0,0.616074818994,0.787687639488
1675249773487977669,,7.3147546689,2.78288485403,0.0,,0.0,0.0,0.598027897062,0.801475286166
1675249773587944238,,7.33032332628,2.84150392494,0.0,,0.0,0.0,0.579332086576,0.815091610473
1675249773678250736,,7.34862066701,2.89318954351,0.0,,0.0,0.0,0.561723427492,0.827325081819
1675249773777854070,,7.36905489417,2.94362187646,0.0,,0.0,0.0,0.543036348603,0.839709190194
1675249773877895801,,7.39167075927,2.99298832577,0.0,,0.0,0.0,0.523403761077,0.852084797946
1675249773998253052,,7.41566435432,3.04009136672,0.0,,0.0,0.0,0.506884193006,0.862014161647
1675249774098595056,,7.44223817929,3.08700853868,0.0,,0.0,0.0,0.485976100605,0.873972098892
1675249774187837092,,7.47042551204,3.13168092771,0.0,,0.0,0.0,0.465113167348,0.885251230759
1675249774288284748,,7.50052578924,3.17478437352,0.0,,0.0,0.0,0.444158840101,0.895948059186
1675249774388036787,,7.53817965975,3.21823817903,0.0,,0.0,0.0,0.420209415445,0.907427158053
1675249774477776399,,7.57211399817,3.25768341989,0.0,,0.0,0.0,0.399066429636,0.916922016715
1675249774577984714,,7.60770252352,3.2953940423,0.0,,0.0,0.0,0.377865778204,0.925860385621
1675249774677792666,,7.64511217342,3.33155094182,0.0,,0.0,0.0,0.356973229048,0.934114614886
1675249774798220869,,7.68404382763,3.36591312038,0.0,,0.0,0.0,0.336316705641,0.94174894399
1675249774888050881,,7.72002968636,3.39942817948,0.0,,0.0,0.0,0.314705625897,0.949189322016
1675249774988002864,,7.76187636632,3.430173218,0.0,,0.0,0.0,0.295851891841,0.95523382378
1675249775087865193,,7.80496428175,3.45930156801,0.0,,0.0,0.0,0.277082043134,0.960846263131
1675249775177974866,,7.84920262411,3.48680987887,0.0,,0.0,0.0,0.259321299726,0.965791107595
1675249775277791646,,7.89443631623,3.51267577187,0.0,,0.0,0.0,0.241223884329,0.970469493405
1675249775377975456,,7.9371825879,3.52627249043,0.0,,0.0,0.0,0.226025949367,0.974121281059
1675249775498163659,,7.98442644623,3.54915639957,0.0,,0.0,0.0,0.20893690438,0.977929123192
1675249775598070926,,8.03375128734,3.57087168016,0.0,,0.0,0.0,0.192167191381,0.981362201512
1675249775687888127,,8.08426468116,3.59112914648,0.0,,0.0,0.0,0.176165382795,0.984360583275
1675249775788168703,,8.13571115908,3.61273498066,0.0,,0.0,0.0,0.161998902307,0.986790938168
1675249775887916668,,8.1878171723,3.6300751139,0.0,,0.0,0.0,0.146962684296,0.989142037032
1675249775978628039,,8.23989757658,3.64570285869,0.0,,0.0,0.0,0.133117395516,0.991100276971
1675249776078041583,,8.29246607519,3.65988102543,0.0,,0.0,0.0,0.119719934124,0.992807704127
1675249776177993282,,8.34525827283,3.6726160931,0.0,,0.0,0.0,0.107194064094,0.994238116662
1675249776298051000,,8.40337408303,3.68214223317,0.0,,0.0,0.0,0.0961986951545,0.995362150702
1675249776387944291,,8.45671905533,3.69234016068,0.0,,0.0,0.0,0.0848752992598,0.996391581446
1675249776487849740,,8.51272457043,3.70175129516,0.0,,0.0,0.0,0.0735537715126,0.997291252692
1675249776588275207,,8.5769432318,3.7141661053,0.0,,0.0,0.0,0.0624608010506,0.998047417878
1675249776678022963,,8.63911253721,3.72179160401,0.0,,0.0,0.0,0.0507988474832,0.998708905084
1675249776778211310,,8.70465985305,3.72824041704,0.0,,0.0,0.0,0.0392043758643,0.99923121294
1675249776878117242,,8.77344524847,3.7334152297,0.0,,0.0,0.0,0.028635652659,0.999589915614
1675249776998497572,,8.84533298188,3.74186667153,0.0,,0.0,0.0,0.0197419018684,0.999805109664
1675249777097960202,,8.9202575575,3.74460059594,0.0,,0.0,0.0,0.00979654750684,0.999952012677
1675249777188192963,,8.99841527744,3.74588488508,0.0,,0.0,0.0,0.000793072549987,0.999999685518
1675249777288325968,,9.07701642011,3.74528069312,0.0,,0.0,0.0,-0.00914119222126,0.99995821843
1675249777387887282,,9.15674385005,3.74368999367,0.0,,0.0,0.0,-0.0157775762619,0.999875526297
1675249777477793907,,9.23868173037,3.73830824137,0.0,,0.0,0.0,-0.0214509107659,0.999769902741
1675249777577898558,,9.31862958277,3.73472330546,0.0,,0.0,0.0,-0.0274212625091,0.999623966481
1675249777677869754,,9.3984606541,3.73021597647,0.0,,0.0,0.0,-0.0322780314104,0.999478928586
1675249777798419195,,9.47203062919,3.71860099725,0.0,,0.0,0.0,-0.0378748153787,0.999282491771
1675249777887981380,,9.5517850181,3.71252553862,0.0,,0.0,0.0,-0.0405095779346,0.999179150151
1675249777987933842,,9.63124764673,3.70602740156,0.0,,0.0,0.0,-0.0426303773488,0.999090912243
1675249778087896505,,9.71258783144,3.7049012715,0.0,,0.0,0.0,-0.0431009029737,0.999070724305
1675249778187876058,,9.79212243216,3.69800087365,0.0,,0.0,0.0,-0.0442420933166,0.999020839212
1675249778277784531,,9.87180416787,3.69093470138,0.0,,0.0,0.0,-0.0447764136979,0.998997033417
1675249778378650421,,9.9560774857,3.6811752057,0.0,,0.0,0.0,-0.045461314928,0.998966099948
1675249778497946551,,10.0356210982,3.67393173139,0.0,,0.0,0.0,-0.0448617181987,0.998993206303
1675249778598266390,,10.115345166,3.66675932313,0.0,,0.0,0.0,-0.0443547244187,0.99901584493
1675249778688228858,,10.1952746204,3.66104811248,0.0,,0.0,0.0,-0.0419834306013,0.999118307086
1675249778787987542,,10.2725043392,3.65460414896,0.0,,0.0,0.0,-0.0399681297033,0.999200955068
1675249778888104587,,10.3406427346,3.64912693299,0.0,,0.0,0.0,-0.0400663387904,0.999197021861
1675249778978056414,,10.3915405626,3.63971415556,0.0,,0.0,0.0,-0.0414209908499,0.99914178249
1675249779077939573,,10.4409406937,3.63561508365,0.0,,0.0,0.0,-0.0425502008336,0.999094330086
1675249779177936165,,10.4851300059,3.63181275715,0.0,,0.0,0.0,-0.0448552374624,0.998993497312
1675249779298139757,,10.526936363,3.62804289626,0.0,,0.0,0.0,-0.0462544833639,0.998929688601
1675249779398156219,,10.5653077554,3.62465075026,0.0,,0.0,0.0,-0.0475570529109,0.998868523239
1675249779487896499,,10.6040688857,3.62092635726,0.0,,0.0,0.0,-0.0490008155641,0.998798738522
1675249779588075589,,10.6385946446,3.61752867337,0.0,,0.0,0.0,-0.0495477606867,0.998771755413
1675249779688151608,,10.668564428,3.61453753091,0.0,,0.0,0.0,-0.0509986500833,0.998698722183
1675249779778023884,,10.6943327452,3.61186523111,0.0,,0.0,0.0,-0.0545368645163,0.998511757772
1675249779877863944,,10.7135123338,3.60973524789,0.0,,0.0,0.0,-0.0596647191076,0.998218473729
1675249779978376573,,10.7327041144,3.60743768227,0.0,,0.0,0.0,-0.0617001197525,0.998094732589
1675249780098081061,,10.7548381814,3.60730467776,0.0,,0.0,0.0,-0.0650914784062,0.997879301037
1675249780188016228,,10.7786661343,3.60417322366,0.0,,0.0,0.0,-0.0666695350851,0.997775111481
1675249780287879402,,10.8056865791,3.6005372235,0.0,,0.0,0.0,-0.0678603550829,0.997694829198
1675249780388239656,,10.8362374637,3.59635736949,0.0,,0.0,0.0,-0.0686963437506,0.997637615748
1675249780477802824,,10.8700082945,3.59167572077,0.0,,0.0,0.0,-0.0691865971386,0.997603736348
1675249780578156138,,10.9073837622,3.58644914232,0.0,,0.0,0.0,-0.0701573292302,0.997535938779
1675249780678156502,,10.9476314846,3.58076065063,0.0,,0.0,0.0,-0.0705862285678,0.997505681356
1675249780798174124,,10.9864721007,3.57197830421,0.0,,0.0,0.0,-0.0715288236864,0.997438533135
1675249780898055496,,11.0338012742,3.56516254846,0.0,,0.0,0.0,-0.0713299887939,0.997452772165
1675249780988065404,,11.0844814184,3.55788253568,0.0,,0.0,0.0,-0.0708880812069,0.997484275537
1675249781087858307,,11.1387171397,3.55015361205,0.0,,0.0,0.0,-0.0701259232076,0.997538147087
1675249781188165055,,11.1947422561,3.53854807508,0.0,,0.0,0.0,-0.0703204477478,0.997524453148
1675249781278117807,,11.2548192814,3.5300653329,0.0,,0.0,0.0,-0.0690464063347,0.997613449073
1675249781377895297,,11.3168784036,3.52148392761,0.0,,0.0,0.0,-0.0670803570757,0.997747576141
1675249781477820860,,11.3814313876,3.51281144494,0.0,,0.0,0.0,-0.0645885306135,0.997911980945
1675249781598236013,,11.44767673,3.50389487438,0.0,,0.0,0.0,-0.0599742287664,0.998199925808
1675249781688760267,,11.5177377653,3.49553973974,0.0,,0.0,0.0,-0.0562822231312,0.998414899408
1675249781787930253,,11.5895000285,3.48751836068,0.0,,0.0,0.0,-0.0523709107353,0.998627702254
1675249781887879987,,11.6673666128,3.47628001344,0.0,,0.0,0.0,-0.0468766511703,0.998900685541
1675249781977788534,,11.7399752129,3.4696026823,0.0,,0.0,0.0,-0.0407096673713,0.999171017886
1675249782078121179,,11.8110487109,3.4639259246,0.0,,0.0,0.0,-0.033984676638,0.999422354039
1675249782177851311,,11.8809103598,3.45731767531,0.0,,0.0,0.0,-0.0274152569111,0.999624131206
1675249782298268643,,11.9393936326,3.45421577416,0.0,,0.0,0.0,-0.0204390254589,0.9997911013
1675249782398872243,,11.9929709641,3.45216298015,0.0,,0.0,0.0,-0.0120683360974,0.99992717498
1675249782488128763,,12.0470996374,3.45102964183,0.0,,0.0,0.0,-0.00178955049475,0.999998398753
1675249782587885522,,12.1011760908,3.44935080256,0.0,,0.0,0.0,0.0111946092052,0.999937338399
1675249782688025910,,12.1574957046,3.45088907153,0.0,,0.0,0.0,0.0261213872357,0.999658778348
1675249782777798004,,12.2158002092,3.45417803805,0.0,,0.0,0.0,0.0415011198665,0.999138457397
1675249782877791017,,12.2762242183,3.4595591008,0.0,,0.0,0.0,0.0582457350127,0.998302276043
1675249782977905819,,12.3461256236,3.47261755116,0.0,,0.0,0.0,0.0777233661463,0.996974963755
1675249783098257533,,12.4086673252,3.48277781855,0.0,,0.0,0.0,0.0970163042589,0.99528279233
1675249783187888432,,12.4683367745,3.49482969215,0.0,,0.0,0.0,0.11534121012,0.993325931026
1675249783287844286,,12.5232653788,3.50803668918,0.0,,0.0,0.0,0.13245173941,0.991189455517
1675249783388117931,,12.5732641387,3.52669602146,0.0,,0.0,0.0,0.150495204038,0.988610739149
1675249783488017199,,12.6246549566,3.54310294653,0.0,,0.0,0.0,0.169325685811,0.985560151449
1675249783577765978,,12.675660195,3.56153168053,0.0,,0.0,0.0,0.188894401489,0.981997405845
1675249783678009729,,12.7263499101,3.5821110449,0.0,,0.0,0.0,0.208250672593,0.978075486537
1675249783798047780,,12.7744451447,3.59561354624,0.0,,0.0,0.0,0.226830402247,0.973934273253
1675249783898112244,,12.8234151996,3.62006354938,0.0,,0.0,0.0,0.245716398471,0.969341761982
1675249783988112919,,12.8713234446,3.64635186422,0.0,,0.0,0.0,0.263717152278,0.964600053698
1675249784088114749,,12.9168583984,3.6736156035,0.0,,0.0,0.0,0.28033034003,0.959903589148
1675249784187905447,,12.9606802818,3.70191334386,0.0,,0.0,0.0,0.296150099383,0.955141412899
1675249784277870848,,13.0068351155,3.72803134124,0.0,,0.0,0.0,0.311103640569,0.950375991292
1675249784377966724,,13.048291717,3.75869334767,0.0,,0.0,0.0,0.325668053167,0.945484171812
1675249784477909188,,13.0889860238,3.79075185059,0.0,,0.0,0.0,0.340277967014,0.940324893409
1675249784598292773,,13.1298438937,3.82512986526,0.0,,0.0,0.0,0.35513119652,0.934816470361
1675249784697957726,,13.1642746532,3.85997695331,0.0,,0.0,0.0,0.368630727491,0.92957591769
1675249784787914489,,13.2035816071,3.89733823192,0.0,,0.0,0.0,0.382231590965,0.924066561925
1675249784887902835,,13.2421665671,3.93618914328,0.0,,0.0,0.0,0.395253067588,0.918572268557
1675249784988569761,,13.2796749496,3.97608364039,0.0,,0.0,0.0,0.407140811989,0.913365402899
1675249785077762920,,13.3159614756,4.01670283554,0.0,,0.0,0.0,0.418191138598,0.908359054338
1675249785177887207,,13.3509470476,4.05777974904,0.0,,0.0,0.0,0.42794857999,0.903803083024
1675249785298187494,,13.3855140836,4.09571347987,0.0,,0.0,0.0,0.43783134031,0.899057126907
1675249785398062963,,13.4186267413,4.13827365652,0.0,,0.0,0.0,0.446510585441,0.894778350816
1675249785487845639,,13.4529420551,4.18420612095,0.0,,0.0,0.0,0.455538091912,0.890216292155
1675249785587964914,,13.4881865339,4.23340906708,0.0,,0.0,0.0,0.464696317557,0.885470119456
1675249785688202802,,13.5242675561,4.28603869264,0.0,,0.0,0.0,0.474170206007,0.88043319777
1675249785777876066,,13.5713943572,4.34934128396,0.0,,0.0,0.0,0.482757617003,0.875754008398
1675249785877785643,,13.608147625,4.40794054746,0.0,,0.0,0.0,0.491465489684,0.870897050431
1675249785978409451,,13.645248141,4.46980736656,0.0,,0.0,0.0,0.500593402747,0.865682531374
1675249786098066914,,13.6812095828,4.53265179247,0.0,,0.0,0.0,0.508564895595,0.861023662258
1675249786197987778,,13.7144643452,4.57738462764,0.0,,0.0,0.0,0.512945180202,0.858421366293
1675249786287883527,,13.7430879961,4.63066347518,0.0,,0.0,0.0,0.517005800428,0.855981893689
1675249786387909935,,13.7708224283,4.68350505783,0.0,,0.0,0.0,0.51886604729,0.854855557957
1675249786487864765,,13.798458651,4.73642844783,0.0,,0.0,0.0,0.516685843904,0.85617506312
1675249786578127551,,13.8347122157,4.78718823127,0.0,,0.0,0.0,0.510967104025,0.859600266754
1675249786678585469,,13.86370871,4.84033452129,0.0,,0.0,0.0,0.506750935016,0.862092506556
1675249786777823443,,13.8917160603,4.89049920514,0.0,,0.0,0.0,0.502683408381,0.864470584195
1675249786898068415,,13.923554886,4.93516859493,0.0,,0.0,0.0,0.497896120997,0.867236676286
1675249786987927915,,13.9473707515,4.97592764996,0.0,,0.0,0.0,0.495251475693,0.868749662344
1675249787088160750,,13.970578958,5.01506678452,0.0,,0.0,0.0,0.493205816327,0.869912652363
1675249787187889488,,13.9939627261,5.05409116896,0.0,,0.0,0.0,0.491551816729,0.870848328626
1675249787278039137,,14.0168982394,5.09205002234,0.0,,0.0,0.0,0.490157124406,0.871634093754
1675249787378058184,,14.035395512,5.12245680083,0.0,,0.0,0.0,0.488464041671,0.872584024604
1675249787477842229,,14.0455662828,5.14124421382,0.0,,0.0,0.0,0.490394117147,0.871500780188
1675249787598227431,,14.049329849,5.14745040174,0.0,,0.0,0.0,0.489502007467,0.872002170115
1675249787698270705,,14.049372017,5.14751955865,0.0,,0.0,0.0,0.490468846684,0.871458725605
1675249787788061498,,14.0493638239,5.1475061203,0.0,,0.0,0.0,0.490224734625,0.871596070185
1675249787887933588,,14.0493638239,5.1475061203,0.0,,0.0,0.0,0.490438576412,0.871475761434
1675249787987814916,,14.0493638239,5.1475061203,0.0,,0.0,0.0,0.490398734954,0.871498181728
1675249788078357081,,14.0493638239,5.1475061203,0.0,,0.0,0.0,0.490398734954,0.871498181728
1675249788178553569,,14.0493638239,5.1475061203,0.0,,0.0,0.0,0.490398734954,0.871498181728
1675249788277991656,,14.0493638239,5.1475061203,0.0,,0.0,0.0,0.490398734954,0.871498181728
1675249788398063461,,14.0493638239,5.1475061203,0.0,,0.0,0.0,0.490398734954,0.871498181728
1675249788487965217,,14.0493638239,5.1475061203,0.0,,0.0,0.0,0.490398734954,0.871498181728
1675249788587933921,,14.0493638239,5.1475061203,0.0,,0.0,0.0,0.490398734954,0.871498181728
1675249788687938594,,14.0493638239,5.1475061203,0.0,,0.0,0.0,0.490398734954,0.871498181728
1675249788778167256,,14.0493638239,5.1475061203,0.0,,0.0,0.0,0.490398734954,0.871498181728
1675249788877965284,,14.0493638239,5.1475061203,0.0,,0.0,0.0,0.490398734954,0.871498181728
1675249788978083082,,14.0493638239,5.1475061203,0.0,,0.0,0.0,0.490398734954,0.871498181728
1675249789098285239,,14.0493638239,5.1475061203,0.0,,0.0,0.0,0.490398734954,0.871498181728
1675249789197975462,,14.0493638239,5.1475061203,0.0,,0.0,0.0,0.490398734954,0.871498181728
1675249789288059795,,14.0493638239,5.1475061203,0.0,,0.0,0.0,0.490398734954,0.871498181728
1675249789388640980,,14.0493638239,5.1475061203,0.0,,0.0,0.0,0.490398734954,0.871498181728
1675249789488242976,,14.0493638239,5.1475061203,0.0,,0.0,0.0,0.490398734954,0.871498181728
1675249789577871854,,14.0493638239,5.1475061203,0.0,,0.0,0.0,0.490398734954,0.871498181728
1675249789688319142,,14.0493638239,5.1475061203,0.0,,0.0,0.0,0.490398734954,0.871498181728
1675249789777867231,,14.0493638239,5.1475061203,0.0,,0.0,0.0,0.490398734954,0.871498181728
1675249789898158633,,14.0493638239,5.1475061203,0.0,,0.0,0.0,0.490398734954,0.871498181728
1675249789988263431,,14.0493638239,5.1475061203,0.0,,0.0,0.0,0.490398734954,0.871498181728
1675249790088107094,,14.0493638239,5.1475061203,0.0,,0.0,0.0,0.490398734954,0.871498181728
1675249790188043894,,14.0493638239,5.1475061203,0.0,,0.0,0.0,0.490398734954,0.871498181728
1675249790288057013,,14.0493638239,5.1475061203,0.0,,0.0,0.0,0.490398734954,0.871498181728
1675249790377941349,,14.0493638239,5.1475061203,0.0,,0.0,0.0,0.490398734954,0.871498181728
1675249790477860990,,14.0493638239,5.1475061203,0.0,,0.0,0.0,0.490398734954,0.871498181728
1675249790598291766,,14.0493638239,5.1475061203,0.0,,0.0,0.0,0.490398734954,0.871498181728
1675249790698323483,,14.0493638239,5.1475061203,0.0,,0.0,0.0,0.490398734954,0.871498181728
1675249790788169303,,14.0493638239,5.1475061203,0.0,,0.0,0.0,0.490398734954,0.871498181728
1675249790888332107,,14.0493638239,5.1475061203,0.0,,0.0,0.0,0.490398734954,0.871498181728
1675249790988119415,,14.0493638239,5.1475061203,0.0,,0.0,0.0,0.490398734954,0.871498181728
1675249791077799278,,14.0493638239,5.1475061203,0.0,,0.0,0.0,0.490398734954,0.871498181728
1675249791177824176,,14.0493638239,5.1475061203,0.0,,0.0,0.0,0.490398734954,0.871498181728
1675249791278025943,,14.0493638239,5.1475061203,0.0,,0.0,0.0,0.490398734954,0.871498181728
1675249791398713512,,14.0493638239,5.1475061203,0.0,,0.0,0.0,0.490398734954,0.871498181728
1675249791498002342,,14.0493638239,5.1475061203,0.0,,0.0,0.0,0.490398734954,0.871498181728
1675249791587929071,,14.0493638239,5.1475061203,0.0,,0.0,0.0,0.490398734954,0.871498181728
1675249791687881381,,14.0493638239,5.1475061203,0.0,,0.0,0.0,0.490398734954,0.871498181728
1675249791787992111,,14.0493638239,5.1475061203,0.0,,0.0,0.0,0.490398734954,0.871498181728
1675249791878556817,,14.0493638239,5.1475061203,0.0,,0.0,0.0,0.490398734954,0.871498181728
1675249791977833833,,14.0493638239,5.1475061203,0.0,,0.0,0.0,0.490398734954,0.871498181728
1675249792077984840,,14.0493638239,5.1475061203,0.0,,0.0,0.0,0.490398734954,0.871498181728
1675249792198248675,,14.0493638239,5.1475061203,0.0,,0.0,0.0,0.490398734954,0.871498181728
1675249792287945117,,14.0493638239,5.1475061203,0.0,,0.0,0.0,0.490398734954,0.871498181728
1675249792388158073,,14.0493638239,5.1475061203,0.0,,0.0,0.0,0.490398734954,0.871498181728
1675249792487870596,,14.0493638239,5.1475061203,0.0,,0.0,0.0,0.490398734954,0.871498181728
1675249792578189120,,14.0493638239,5.1475061203,0.0,,0.0,0.0,0.490398734954,0.871498181728
1675249792678105559,,14.0493638239,5.1475061203,0.0,,0.0,0.0,0.490398734954,0.871498181728
1675249792778147049,,14.0493638239,5.1475061203,0.0,,0.0,0.0,0.490398734954,0.871498181728
1675249792898323709,,14.0493638239,5.1475061203,0.0,,0.0,0.0,0.490398734954,0.871498181728
1675249792998151774,,14.0493638239,5.1475061203,0.0,,0.0,0.0,0.490398734954,0.871498181728
1675249793088802336,,14.0493638239,5.1475061203,0.0,,0.0,0.0,0.490398734954,0.871498181728
1675249793187971814,,14.0493638239,5.1475061203,0.0,,0.0,0.0,0.490398734954,0.871498181728
1675249793287949480,,14.0493638239,5.1475061203,0.0,,0.0,0.0,0.490398734954,0.871498181728
1675249793378114584,,14.0493638239,5.1475061203,0.0,,0.0,0.0,0.490398734954,0.871498181728
1675249793477822786,,14.0493638239,5.1475061203,0.0,,0.0,0.0,0.490398734954,0.871498181728
1675249793577868864,,14.0493638239,5.1475061203,0.0,,0.0,0.0,0.490398734954,0.871498181728
1675249793698280050,,14.0493638239,5.1475061203,0.0,,0.0,0.0,0.490398734954,0.871498181728
1675249793787908462,,14.0493638239,5.1475061203,0.0,,0.0,0.0,0.490398734954,0.871498181728
1675249793888079828,,14.0493638239,5.1475061203,0.0,,0.0,0.0,0.490398734954,0.871498181728
1675249793987908054,,14.0493638239,5.1475061203,0.0,,0.0,0.0,0.490398734954,0.871498181728
1675249794077837029,,14.0493638239,5.1475061203,0.0,,0.0,0.0,0.490398734954,0.871498181728
1675249794177929744,,14.0493638239,5.1475061203,0.0,,0.0,0.0,0.490398734954,0.871498181728
1675249794277923386,,14.0493638239,5.1475061203,0.0,,0.0,0.0,0.490398734954,0.871498181728
1675249794398569797,,14.0493638239,5.1475061203,0.0,,0.0,0.0,0.490398734954,0.871498181728
1675249794498044170,,14.0493638239,5.1475061203,0.0,,0.0,0.0,0.490398734954,0.871498181728
1675249794587930001,,14.0493638239,5.1475061203,0.0,,0.0,0.0,0.490398734954,0.871498181728
1675249794687940706,,14.0493638239,5.1475061203,0.0,,0.0,0.0,0.490398734954,0.871498181728
1675249794787902928,,14.0493638239,5.1475061203,0.0,,0.0,0.0,0.490398734954,0.871498181728
1675249794877815366,,14.0493638239,5.1475061203,0.0,,0.0,0.0,0.490398734954,0.871498181728
1675249794978042892,,14.0493638239,5.1475061203,0.0,,0.0,0.0,0.490398734954,0.871498181728
1675249795077854651,,14.0493638239,5.1475061203,0.0,,0.0,0.0,0.490398734954,0.871498181728
1675249795198134448,,14.0493638239,5.1475061203,0.0,,0.0,0.0,0.490398734954,0.871498181728
1675249795288299196,,14.0493638239,5.1475061203,0.0,,0.0,0.0,0.490398734954,0.871498181728
1675249795387901960,,14.0493638239,5.1475061203,0.0,,0.0,0.0,0.490398734954,0.871498181728
1675249795488083369,,14.0493638239,5.1475061203,0.0,,0.0,0.0,0.490398734954,0.871498181728
1675249795587854859,,14.0493638239,5.1475061203,0.0,,0.0,0.0,0.490398734954,0.871498181728
1675249795677815250,,14.0493638239,5.1475061203,0.0,,0.0,0.0,0.490398734954,0.871498181728
1675249795777870696,,14.0493638239,5.1475061203,0.0,,0.0,0.0,0.490398734954,0.871498181728
1675249795898413414,,14.0493638239,5.1475061203,0.0,,0.0,0.0,0.490398734954,0.871498181728
1675249795998234874,,14.0493638239,5.1475061203,0.0,,0.0,0.0,0.490398734954,0.871498181728
1675249796087993458,,14.0493638239,5.1475061203,0.0,,0.0,0.0,0.490398734954,0.871498181728
1675249796187978793,,14.0493638239,5.1475061203,0.0,,0.0,0.0,0.490398734954,0.871498181728
1675249796287908719,,14.0493638239,5.1475061203,0.0,,0.0,0.0,0.490398734954,0.871498181728
1675249796378054309,,14.0493638239,5.1475061203,0.0,,0.0,0.0,0.490398734954,0.871498181728
1675249796477795518,,14.0493638239,5.1475061203,0.0,,0.0,0.0,0.490398734954,0.871498181728
1675249796578037223,,14.0493638239,5.1475061203,0.0,,0.0,0.0,0.490398734954,0.871498181728
1675249796698094958,,14.0493638239,5.1475061203,0.0,,0.0,0.0,0.490398734954,0.871498181728
1675249796788855488,,14.0493638239,5.1475061203,0.0,,0.0,0.0,0.490398734954,0.871498181728
1675249796888198915,,14.0493638239,5.1475061203,0.0,,0.0,0.0,0.490398734954,0.871498181728
1675249796988032710,,14.0493638239,5.1475061203,0.0,,0.0,0.0,0.490398734954,0.871498181728
1675249797088096129,,14.0493638239,5.1475061203,0.0,,0.0,0.0,0.490398734954,0.871498181728
1675249797177993391,,14.0493638239,5.1475061203,0.0,,0.0,0.0,0.490398734954,0.871498181728
1675249797278666979,,14.0493638239,5.1475061203,0.0,,0.0,0.0,0.490398734954,0.871498181728
1675249797398900411,,14.0493638239,5.1475061203,0.0,,0.0,0.0,0.490398734954,0.871498181728
1675249797498321802,,14.0493638239,5.1475061203,0.0,,0.0,0.0,0.490398734954,0.871498181728
1675249797589130680,,14.0493638239,5.1475061203,0.0,,0.0,0.0,0.490398734954,0.871498181728
1675249797687944244,,14.0493638239,5.1475061203,0.0,,0.0,0.0,0.490398734954,0.871498181728
1675249797787978416,,14.0493638239,5.1475061203,0.0,,0.0,0.0,0.490398734954,0.871498181728
1675249797877884306,,14.0493638239,5.1475061203,0.0,,0.0,0.0,0.490398734954,0.871498181728
1675249797977810425,,14.0493638239,5.1475061203,0.0,,0.0,0.0,0.490398734954,0.871498181728
1675249798077844114,,14.0493638239,5.1475061203,0.0,,0.0,0.0,0.490398734954,0.871498181728
1675249798198223610,,14.0493638239,5.1475061203,0.0,,0.0,0.0,0.490398734954,0.871498181728
1675249798298249281,,14.0493638239,5.1475061203,0.0,,0.0,0.0,0.490398734954,0.871498181728
1675249798388281862,,14.0493638239,5.1475061203,0.0,,0.0,0.0,0.490398734954,0.871498181728
1675249798488012721,,14.0493638239,5.1475061203,0.0,,0.0,0.0,0.490398734954,0.871498181728
1675249798588283461,,14.0493638239,5.1475061203,0.0,,0.0,0.0,0.490398734954,0.871498181728
1675249798678021529,,14.0493638239,5.1475061203,0.0,,0.0,0.0,0.490398734954,0.871498181728
1675249798777761489,,14.0493638239,5.1475061203,0.0,,0.0,0.0,0.490398734954,0.871498181728
1675249798877873476,,14.0493638239,5.1475061203,0.0,,0.0,0.0,0.490398734954,0.871498181728
1675249798998042847,,14.0493638239,5.1475061203,0.0,,0.0,0.0,0.490398734954,0.871498181728
1675249799098261437,,14.0493638239,5.1475061203,0.0,,0.0,0.0,0.490398734954,0.871498181728
1675249799188031666,,14.0493638239,5.1475061203,0.0,,0.0,0.0,0.490398734954,0.871498181728
1675249799287981499,,14.0493638239,5.1475061203,0.0,,0.0,0.0,0.490398734954,0.871498181728
1675249799377904898,,14.0493638239,5.1475061203,0.0,,0.0,0.0,0.490398734954,0.871498181728
1675249799477774798,,14.0493638239,5.1475061203,0.0,,0.0,0.0,0.490398734954,0.871498181728
1675249799577800742,,14.0493638239,5.1475061203,0.0,,0.0,0.0,0.490398734954,0.871498181728
1675249799698132078,,14.0493638239,5.1475061203,0.0,,0.0,0.0,0.490398734954,0.871498181728
1675249799798073535,,14.0493638239,5.1475061203,0.0,,0.0,0.0,0.490398734954,0.871498181728
1675249799888168592,,14.0493638239,5.1475061203,0.0,,0.0,0.0,0.490398734954,0.871498181728
1675249799987895216,,14.0493638239,5.1475061203,0.0,,0.0,0.0,0.490398734954,0.871498181728
1675249800088035097,,14.0493638239,5.1475061203,0.0,,0.0,0.0,0.490398734954,0.871498181728
1675249800177811161,,14.0493638239,5.1475061203,0.0,,0.0,0.0,0.490398734954,0.871498181728
1675249800277945684,,14.0493638239,5.1475061203,0.0,,0.0,0.0,0.490398734954,0.871498181728
1675249800377797181,,14.0493638239,5.1475061203,0.0,,0.0,0.0,0.490398734954,0.871498181728
1675249800498247869,,14.0493638239,5.1475061203,0.0,,0.0,0.0,0.490398734954,0.871498181728
1675249800588286176,,14.0493638239,5.1475061203,0.0,,0.0,0.0,0.490398734954,0.871498181728
1675249800687875263,,14.0493638239,5.1475061203,0.0,,0.0,0.0,0.490398734954,0.871498181728
1675249800788037580,,14.0493638239,5.1475061203,0.0,,0.0,0.0,0.490398734954,0.871498181728
1675249800878104332,,14.0493638239,5.1475061203,0.0,,0.0,0.0,0.490398734954,0.871498181728
1675249800977798880,,14.0493638239,5.1475061203,0.0,,0.0,0.0,0.490398734954,0.871498181728
1675249801077949457,,14.0493638239,5.1475061203,0.0,,0.0,0.0,0.490398734954,0.871498181728
1675249801198508441,,14.0493638239,5.1475061203,0.0,,0.0,0.0,0.490398734954,0.871498181728
1675249801298120164,,14.0493638239,5.1475061203,0.0,,0.0,0.0,0.490398734954,0.871498181728
1675249801388018131,,14.0493638239,5.1475061203,0.0,,0.0,0.0,0.490398734954,0.871498181728
1675249801487983670,,14.0493638239,5.1475061203,0.0,,0.0,0.0,0.490398734954,0.871498181728
1675249801587903954,,14.0493638239,5.1475061203,0.0,,0.0,0.0,0.490398734954,0.871498181728
1675249801678456057,,14.0493638239,5.1475061203,0.0,,0.0,0.0,0.490398734954,0.871498181728
1675249801777926392,,14.0493638239,5.1475061203,0.0,,0.0,0.0,0.490398734954,0.871498181728
1675249801877958125,,14.0493638239,5.1475061203,0.0,,0.0,0.0,0.490398734954,0.871498181728
1675249801998235626,,14.0493638239,5.1475061203,0.0,,0.0,0.0,0.490398734954,0.871498181728
1675249802088039143,,14.0493638239,5.1475061203,0.0,,0.0,0.0,0.490398734954,0.871498181728
1675249802187952338,,14.0493638239,5.1475061203,0.0,,0.0,0.0,0.490398734954,0.871498181728
1675249802287881055,,14.0493638239,5.1475061203,0.0,,0.0,0.0,0.490398734954,0.871498181728
1675249802388386747,,14.0493638239,5.1475061203,0.0,,0.0,0.0,0.490398734954,0.871498181728
1675249802478059099,,14.0493638239,5.1475061203,0.0,,0.0,0.0,0.490398734954,0.871498181728
1675249802577768066,,14.0493638239,5.1475061203,0.0,,0.0,0.0,0.490398734954,0.871498181728
1675249802698027257,,14.0493638239,5.1475061203,0.0,,0.0,0.0,0.490398734954,0.871498181728
1675249802798351690,,14.0493638239,5.1475061203,0.0,,0.0,0.0,0.490398734954,0.871498181728
1675249802888016092,,14.0493638239,5.1475061203,0.0,,0.0,0.0,0.490398734954,0.871498181728
1675249802987900937,,14.0493638239,5.1475061203,0.0,,0.0,0.0,0.490398734954,0.871498181728
1675249803088037851,,14.0493638239,5.1475061203,0.0,,0.0,0.0,0.490398734954,0.871498181728
1675249803177837895,,14.0493638239,5.1475061203,0.0,,0.0,0.0,0.490398734954,0.871498181728
1675249803278075348,,14.0493638239,5.1475061203,0.0,,0.0,0.0,0.490398734954,0.871498181728
1675249803377860373,,14.0493638239,5.1475061203,0.0,,0.0,0.0,0.490398734954,0.871498181728
1675249803498192498,,14.0493638239,5.1475061203,0.0,,0.0,0.0,0.490398734954,0.871498181728
1675249803598508582,,14.0493638239,5.1475061203,0.0,,0.0,0.0,0.490398734954,0.871498181728
1675249803687967133,,14.0493638239,5.1475061203,0.0,,0.0,0.0,0.490398734954,0.871498181728
1675249803787939676,,14.0493638239,5.1475061203,0.0,,0.0,0.0,0.490398734954,0.871498181728
1675249803887858632,,14.0493638239,5.1475061203,0.0,,0.0,0.0,0.490398734954,0.871498181728
1675249803978069743,,14.0493638239,5.1475061203,0.0,,0.0,0.0,0.490398734954,0.871498181728
1675249804077834664,,14.0493638239,5.1475061203,0.0,,0.0,0.0,0.490398734954,0.871498181728
1675249804177827928,,14.0493638239,5.1475061203,0.0,,0.0,0.0,0.490398734954,0.871498181728
1675249804298310607,,14.0493638239,5.1475061203,0.0,,0.0,0.0,0.490398734954,0.871498181728
1675249804388169924,,14.0493638239,5.1475061203,0.0,,0.0,0.0,0.490398734954,0.871498181728
1675249804487869313,,14.0493638239,5.1475061203,0.0,,0.0,0.0,0.490398734954,0.871498181728
1675249804588951070,,14.0493638239,5.1475061203,0.0,,0.0,0.0,0.490398734954,0.871498181728
1675249804678169421,,14.0493638239,5.1475061203,0.0,,0.0,0.0,0.490398734954,0.871498181728
1675249804778407142,,14.0493638239,5.1475061203,0.0,,0.0,0.0,0.490398734954,0.871498181728
1675249804877998290,,14.0493638239,5.1475061203,0.0,,0.0,0.0,0.490398734954,0.871498181728
1675249804997994731,,14.0493638239,5.1475061203,0.0,,0.0,0.0,0.490398734954,0.871498181728
1675249805098594020,,14.0493638239,5.1475061203,0.0,,0.0,0.0,0.490398734954,0.871498181728
1675249805188015602,,14.0493638239,5.1475061203,0.0,,0.0,0.0,0.490398734954,0.871498181728
1675249805287887423,,14.0493638239,5.1475061203,0.0,,0.0,0.0,0.490398734954,0.871498181728
1675249805388026712,,14.0493638239,5.1475061203,0.0,,0.0,0.0,0.490398734954,0.871498181728
1675249805477945807,,14.0493638239,5.1475061203,0.0,,0.0,0.0,0.490398734954,0.871498181728
1675249805577796413,,14.0493638239,5.1475061203,0.0,,0.0,0.0,0.490398734954,0.871498181728
1675249805678230980,,14.0493638239,5.1475061203,0.0,,0.0,0.0,0.490398734954,0.871498181728
1675249805798320441,,14.0493638239,5.1475061203,0.0,,0.0,0.0,0.490398734954,0.871498181728
1675249805887839140,,14.0493638239,5.1475061203,0.0,,0.0,0.0,0.490398734954,0.871498181728
1675249805988010210,,14.0493638239,5.1475061203,0.0,,0.0,0.0,0.490398734954,0.871498181728
1675249806088104587,,14.0493638239,5.1475061203,0.0,,0.0,0.0,0.490398734954,0.871498181728
1675249806178417341,,14.0493638239,5.1475061203,0.0,,0.0,0.0,0.490398734954,0.871498181728
1675249806278127053,,14.0493638239,5.1475061203,0.0,,0.0,0.0,0.490398734954,0.871498181728
1675249806377785129,,14.0493638239,5.1475061203,0.0,,0.0,0.0,0.490398734954,0.871498181728
1675249806498118636,,14.0493638239,5.1475061203,0.0,,0.0,0.0,0.490398734954,0.871498181728
1675249806598235631,,14.0493638239,5.1475061203,0.0,,0.0,0.0,0.490398734954,0.871498181728
1675249806687875939,,14.0493638239,5.1475061203,0.0,,0.0,0.0,0.490398734954,0.871498181728
1675249806788235784,,14.0493638239,5.1475061203,0.0,,0.0,0.0,0.490398734954,0.871498181728
1675249806887892673,,14.0493638239,5.1475061203,0.0,,0.0,0.0,0.490398734954,0.871498181728
1675249806977754631,,14.0493638239,5.1475061203,0.0,,0.0,0.0,0.490398734954,0.871498181728
1675249807077864134,,14.0493638239,5.1475061203,0.0,,0.0,0.0,0.490398734954,0.871498181728
1675249807177933320,,14.0493638239,5.1475061203,0.0,,0.0,0.0,0.490398734954,0.871498181728
1675249807298175101,,14.0493638239,5.1475061203,0.0,,0.0,0.0,0.490398734954,0.871498181728
1675249807387909444,,14.0493638239,5.1475061203,0.0,,0.0,0.0,0.490398734954,0.871498181728
1675249807487901339,,14.0493638239,5.1475061203,0.0,,0.0,0.0,0.490398734954,0.871498181728
