rosbagTimestamp,position,x,y,z,orientation,x,y,z,w
1675248817178718312,,10.300939917,-0.421446448698,0.0,,0.0,0.0,0.726253821684,0.687426640805
1675248817278808325,,10.300939917,-0.421446448698,0.0,,0.0,0.0,0.726253821684,0.687426640805
1675248817399267851,,10.300939917,-0.421446448698,0.0,,0.0,0.0,0.726253821684,0.687426640805
1675248817498914076,,10.300939917,-0.421446448698,0.0,,0.0,0.0,0.726253821684,0.687426640805
1675248817588969959,,10.300939917,-0.421446448698,0.0,,0.0,0.0,0.726253821684,0.687426640805
1675248817689365340,,10.300939917,-0.421446448698,0.0,,0.0,0.0,0.726253821684,0.687426640805
1675248817789012150,,10.300939917,-0.421446448698,0.0,,0.0,0.0,0.726253821684,0.687426640805
1675248817879803464,,10.300939917,-0.421446448698,0.0,,0.0,0.0,0.726253821684,0.687426640805
1675248817978657039,,10.300939917,-0.421446448698,0.0,,0.0,0.0,0.726253821684,0.687426640805
1675248818079052433,,10.300939917,-0.421446448698,0.0,,0.0,0.0,0.726253821684,0.687426640805
1675248818199035462,,10.300939917,-0.421446448698,0.0,,0.0,0.0,0.726253821684,0.687426640805
1675248818289474494,,10.300939917,-0.421446448698,0.0,,0.0,0.0,0.726253821684,0.687426640805
1675248818389134180,,10.300939917,-0.421446448698,0.0,,0.0,0.0,0.726253821684,0.687426640805
1675248818488972705,,10.300939917,-0.421446448698,0.0,,0.0,0.0,0.726253821684,0.687426640805
1675248818579383291,,10.300939917,-0.421446448698,0.0,,0.0,0.0,0.726253821684,0.687426640805
1675248818678900944,,10.300939917,-0.421446448698,0.0,,0.0,0.0,0.726253821684,0.687426640805
1675248818778779511,,10.300939917,-0.421446448698,0.0,,0.0,0.0,0.726253821684,0.687426640805
1675248818898894838,,10.300939917,-0.421446448698,0.0,,0.0,0.0,0.726253821684,0.687426640805
1675248818999212279,,10.300939917,-0.421446448698,0.0,,0.0,0.0,0.726253821684,0.687426640805
1675248819089229900,,10.300939917,-0.421446448698,0.0,,0.0,0.0,0.726253821684,0.687426640805
1675248819188941249,,10.300939917,-0.421446448698,0.0,,0.0,0.0,0.726253821684,0.687426640805
1675248819289225290,,10.300939917,-0.421446448698,0.0,,0.0,0.0,0.726253821684,0.687426640805
1675248819379520357,,10.300939917,-0.421446448698,0.0,,0.0,0.0,0.726253821684,0.687426640805
1675248819479132551,,10.300939917,-0.421446448698,0.0,,0.0,0.0,0.726253821684,0.687426640805
1675248819579066065,,10.300939917,-0.421446448698,0.0,,0.0,0.0,0.726253821684,0.687426640805
1675248819699160870,,10.300939917,-0.421446448698,0.0,,0.0,0.0,0.726253821684,0.687426640805
1675248819789105587,,10.300939917,-0.421446448698,0.0,,0.0,0.0,0.726253821684,0.687426640805
1675248819889125205,,10.300939917,-0.421446448698,0.0,,0.0,0.0,0.726253821684,0.687426640805
1675248819988852191,,10.300939917,-0.421446448698,0.0,,0.0,0.0,0.726253821684,0.687426640805
1675248820088894986,,10.300939917,-0.421446448698,0.0,,0.0,0.0,0.726253821684,0.687426640805
1675248820178740895,,10.300939917,-0.421446448698,0.0,,0.0,0.0,0.726253821684,0.687426640805
1675248820279043021,,10.300939917,-0.421446448698,0.0,,0.0,0.0,0.726253821684,0.687426640805
1675248820398940458,,10.300939917,-0.421446448698,0.0,,0.0,0.0,0.726253821684,0.687426640805
1675248820498966742,,10.300939917,-0.421446448698,0.0,,0.0,0.0,0.726253821684,0.687426640805
1675248820588984058,,10.300939917,-0.421446448698,0.0,,0.0,0.0,0.726253821684,0.687426640805
1675248820689239491,,10.300939917,-0.421446448698,0.0,,0.0,0.0,0.726253821684,0.687426640805
1675248820788968317,,10.300939917,-0.421446448698,0.0,,0.0,0.0,0.726253821684,0.687426640805
1675248820880469643,,10.300939917,-0.421446448698,0.0,,0.0,0.0,0.726253821684,0.687426640805
1675248820978722441,,10.300939917,-0.421446448698,0.0,,0.0,0.0,0.726253821684,0.687426640805
1675248821078949197,,10.300939917,-0.421446448698,0.0,,0.0,0.0,0.726253821684,0.687426640805
1675248821199014679,,10.300939917,-0.421446448698,0.0,,0.0,0.0,0.726253821684,0.687426640805
1675248821299460987,,10.300939917,-0.421446448698,0.0,,0.0,0.0,0.726253821684,0.687426640805
1675248821389050865,,10.300939917,-0.421446448698,0.0,,0.0,0.0,0.726253821684,0.687426640805
1675248821489151526,,10.300939917,-0.421446448698,0.0,,0.0,0.0,0.726253821684,0.687426640805
1675248821589255156,,10.300939917,-0.421446448698,0.0,,0.0,0.0,0.726253821684,0.687426640805
1675248821679096969,,10.300939917,-0.421446448698,0.0,,0.0,0.0,0.726253821684,0.687426640805
1675248821778712398,,10.300939917,-0.421446448698,0.0,,0.0,0.0,0.726253821684,0.687426640805
1675248821878974832,,10.300939917,-0.421446448698,0.0,,0.0,0.0,0.726253821684,0.687426640805
1675248821999167356,,10.300939917,-0.421446448698,0.0,,0.0,0.0,0.726253821684,0.687426640805
1675248822089204057,,10.300939917,-0.421446448698,0.0,,0.0,0.0,0.726253821684,0.687426640805
1675248822188850958,,10.300939917,-0.421446448698,0.0,,0.0,0.0,0.726253821684,0.687426640805
1675248822289285081,,10.300939917,-0.421446448698,0.0,,0.0,0.0,0.726253821684,0.687426640805
1675248822378728910,,10.300939917,-0.421446448698,0.0,,0.0,0.0,0.726253821684,0.687426640805
1675248822478956731,,10.300939917,-0.421446448698,0.0,,0.0,0.0,0.726253821684,0.687426640805
1675248822578868503,,10.300939917,-0.421446448698,0.0,,0.0,0.0,0.726253821684,0.687426640805
1675248822699051659,,10.300939917,-0.421446448698,0.0,,0.0,0.0,0.726253821684,0.687426640805
1675248822798930769,,10.300939917,-0.421446448698,0.0,,0.0,0.0,0.726253821684,0.687426640805
1675248822889061244,,10.300939917,-0.421446448698,0.0,,0.0,0.0,0.726253821684,0.687426640805
1675248822988794505,,10.300939917,-0.421446448698,0.0,,0.0,0.0,0.726253821684,0.687426640805
1675248823088903152,,10.300939917,-0.421446448698,0.0,,0.0,0.0,0.726253821684,0.687426640805
1675248823178717863,,10.300939917,-0.421446448698,0.0,,0.0,0.0,0.726253821684,0.687426640805
1675248823279215957,,10.300939917,-0.421446448698,0.0,,0.0,0.0,0.726253821684,0.687426640805
1675248823378851970,,10.300939917,-0.421446448698,0.0,,0.0,0.0,0.726253821684,0.687426640805
1675248823498859946,,10.300939917,-0.421446448698,0.0,,0.0,0.0,0.726253821684,0.687426640805
1675248823589503831,,10.300939917,-0.421446448698,0.0,,0.0,0.0,0.726253821684,0.687426640805
1675248823689114414,,10.300939917,-0.421446448698,0.0,,0.0,0.0,0.726253821684,0.687426640805
1675248823789368076,,10.300939917,-0.421446448698,0.0,,0.0,0.0,0.726253821684,0.687426640805
1675248823878706966,,10.300939917,-0.421446448698,0.0,,0.0,0.0,0.726253821684,0.687426640805
1675248823978640862,,10.300939917,-0.421446448698,0.0,,0.0,0.0,0.726253821684,0.687426640805
1675248824078989666,,10.300939917,-0.421446448698,0.0,,0.0,0.0,0.726253821684,0.687426640805
1675248824198851557,,10.300939917,-0.421446448698,0.0,,0.0,0.0,0.726253821684,0.687426640805
1675248824299075239,,10.300939917,-0.421446448698,0.0,,0.0,0.0,0.726253821684,0.687426640805
1675248824388749424,,10.300939917,-0.421446448698,0.0,,0.0,0.0,0.726253821684,0.687426640805
1675248824488904121,,10.300939917,-0.421446448698,0.0,,0.0,0.0,0.726253821684,0.687426640805
1675248824588995074,,10.300939917,-0.421446448698,0.0,,0.0,0.0,0.726253821684,0.687426640805
1675248824679105841,,10.300939917,-0.421446448698,0.0,,0.0,0.0,0.726253821684,0.687426640805
1675248824778674079,,10.300939917,-0.421446448698,0.0,,0.0,0.0,0.726253821684,0.687426640805
1675248824878923325,,10.300939917,-0.421446448698,0.0,,0.0,0.0,0.726253821684,0.687426640805
1675248824999077458,,10.300939917,-0.421446448698,0.0,,0.0,0.0,0.726253821684,0.687426640805
1675248825089331027,,10.300939917,-0.421446448698,0.0,,0.0,0.0,0.726253821684,0.687426640805
1675248825188671733,,10.300939917,-0.421446448698,0.0,,0.0,0.0,0.726253821684,0.687426640805
1675248825289069316,,10.300939917,-0.421446448698,0.0,,0.0,0.0,0.726253821684,0.687426640805
1675248825379343232,,10.300939917,-0.421446448698,0.0,,0.0,0.0,0.726253821684,0.687426640805
1675248825478921744,,10.300939917,-0.421446448698,0.0,,0.0,0.0,0.726253821684,0.687426640805
1675248825578940210,,10.300939917,-0.421446448698,0.0,,0.0,0.0,0.726253821684,0.687426640805
1675248825699072970,,10.300939917,-0.421446448698,0.0,,0.0,0.0,0.726253821684,0.687426640805
1675248825799331520,,10.300939917,-0.421446448698,0.0,,0.0,0.0,0.726253821684,0.687426640805
1675248825889583315,,10.300939917,-0.421446448698,0.0,,0.0,0.0,0.726253821684,0.687426640805
1675248825988893091,,10.300939917,-0.421446448698,0.0,,0.0,0.0,0.726253821684,0.687426640805
1675248826088830264,,10.300939917,-0.421446448698,0.0,,0.0,0.0,0.726253821684,0.687426640805
1675248826178830741,,10.300939917,-0.421446448698,0.0,,0.0,0.0,0.726253821684,0.687426640805
1675248826279025830,,10.300939917,-0.421446448698,0.0,,0.0,0.0,0.726253821684,0.687426640805
1675248826378885102,,10.300939917,-0.421446448698,0.0,,0.0,0.0,0.726253821684,0.687426640805
1675248826499032597,,10.300939917,-0.421446448698,0.0,,0.0,0.0,0.726253821684,0.687426640805
1675248826589952971,,10.300939917,-0.421446448698,0.0,,0.0,0.0,0.726253821684,0.687426640805
1675248826689091517,,10.300939917,-0.421446448698,0.0,,0.0,0.0,0.726253821684,0.687426640805
1675248826788787856,,10.300939917,-0.421446448698,0.0,,0.0,0.0,0.726253821684,0.687426640805
1675248826889151196,,10.300939917,-0.421446448698,0.0,,0.0,0.0,0.726253821684,0.687426640805
1675248826978727432,,10.300939917,-0.421446448698,0.0,,0.0,0.0,0.726253821684,0.687426640805
1675248827079400327,,10.300939917,-0.421446448698,0.0,,0.0,0.0,0.726253821684,0.687426640805
1675248827199094437,,10.300939917,-0.421446448698,0.0,,0.0,0.0,0.726253821684,0.687426640805
1675248827299111895,,10.300939917,-0.421446448698,0.0,,0.0,0.0,0.726253821684,0.687426640805
1675248827389159763,,10.300939917,-0.421446448698,0.0,,0.0,0.0,0.726253821684,0.687426640805
1675248827488967873,,10.300939917,-0.421446448698,0.0,,0.0,0.0,0.726253821684,0.687426640805
1675248827589136521,,10.300939917,-0.421446448698,0.0,,0.0,0.0,0.726253821684,0.687426640805
1675248827679205022,,10.300939917,-0.421446448698,0.0,,0.0,0.0,0.726253821684,0.687426640805
1675248827778712750,,10.300939917,-0.421446448698,0.0,,0.0,0.0,0.726253821684,0.687426640805
1675248827878893133,,10.300939917,-0.421446448698,0.0,,0.0,0.0,0.726253821684,0.687426640805
1675248827999015531,,10.300939917,-0.421446448698,0.0,,0.0,0.0,0.726253821684,0.687426640805
1675248828099558713,,10.300939917,-0.421446448698,0.0,,0.0,0.0,0.726253821684,0.687426640805
1675248828188784112,,10.300939917,-0.421446448698,0.0,,0.0,0.0,0.726253821684,0.687426640805
1675248828289057138,,10.300939917,-0.421446448698,0.0,,0.0,0.0,0.726253821684,0.687426640805
1675248828388901990,,10.300939917,-0.421446448698,0.0,,0.0,0.0,0.726253821684,0.687426640805
1675248828478952751,,10.300939917,-0.421446448698,0.0,,0.0,0.0,0.726253821684,0.687426640805
1675248828578834288,,10.300939917,-0.421446448698,0.0,,0.0,0.0,0.726253821684,0.687426640805
1675248828699595851,,10.300939917,-0.421446448698,0.0,,0.0,0.0,0.726253821684,0.687426640805
1675248828798986267,,10.300939917,-0.421446448698,0.0,,0.0,0.0,0.726253821684,0.687426640805
1675248828889216247,,10.300939917,-0.421446448698,0.0,,0.0,0.0,0.726253821684,0.687426640805
1675248828988869098,,10.300939917,-0.421446448698,0.0,,0.0,0.0,0.726253821684,0.687426640805
1675248829088994692,,10.300939917,-0.421446448698,0.0,,0.0,0.0,0.726253821684,0.687426640805
1675248829178675099,,10.300939917,-0.421446448698,0.0,,0.0,0.0,0.726253821684,0.687426640805
1675248829278984521,,10.300939917,-0.421446448698,0.0,,0.0,0.0,0.726253821684,0.687426640805
1675248829378824043,,10.300939917,-0.421446448698,0.0,,0.0,0.0,0.726253821684,0.687426640805
1675248829498982189,,10.300939917,-0.421446448698,0.0,,0.0,0.0,0.726253821684,0.687426640805
1675248829598954535,,10.300939917,-0.421446448698,0.0,,0.0,0.0,0.726253821684,0.687426640805
1675248829689136994,,10.300939917,-0.421446448698,0.0,,0.0,0.0,0.726253821684,0.687426640805
1675248829788869456,,10.300939917,-0.421446448698,0.0,,0.0,0.0,0.726253821684,0.687426640805
1675248829889109031,,10.300939917,-0.421446448698,0.0,,0.0,0.0,0.726253821684,0.687426640805
1675248829978609459,,10.300939917,-0.421446448698,0.0,,0.0,0.0,0.726253821684,0.687426640805
1675248830078860578,,10.300939917,-0.421446448698,0.0,,0.0,0.0,0.726253821684,0.687426640805
1675248830199176091,,10.300939917,-0.421446448698,0.0,,0.0,0.0,0.726253821684,0.687426640805
1675248830298929776,,10.300939917,-0.421446448698,0.0,,0.0,0.0,0.726253821684,0.687426640805
1675248830389354734,,10.300939917,-0.421446448698,0.0,,0.0,0.0,0.726253821684,0.687426640805
1675248830488921836,,10.300939917,-0.421446448698,0.0,,0.0,0.0,0.726253821684,0.687426640805
1675248830589150397,,10.300939917,-0.421446448698,0.0,,0.0,0.0,0.726253821684,0.687426640805
1675248830689190710,,10.300939917,-0.421446448698,0.0,,0.0,0.0,0.726253821684,0.687426640805
1675248830778665761,,10.300939917,-0.421446448698,0.0,,0.0,0.0,0.726253821684,0.687426640805
1675248830878971035,,10.300939917,-0.421446448698,0.0,,0.0,0.0,0.726253821684,0.687426640805
1675248830999297046,,10.300939917,-0.421446448698,0.0,,0.0,0.0,0.726253821684,0.687426640805
1675248831098988210,,10.300939917,-0.421446448698,0.0,,0.0,0.0,0.726253821684,0.687426640805
1675248831188834716,,10.300939917,-0.421446448698,0.0,,0.0,0.0,0.726253821684,0.687426640805
1675248831289206886,,10.300939917,-0.421446448698,0.0,,0.0,0.0,0.726253821684,0.687426640805
1675248831389450625,,10.300939917,-0.421446448698,0.0,,0.0,0.0,0.726253821684,0.687426640805
1675248831478911307,,10.300939917,-0.421446448698,0.0,,0.0,0.0,0.726253821684,0.687426640805
1675248831578889140,,10.300939917,-0.421446448698,0.0,,0.0,0.0,0.726253821684,0.687426640805
1675248831678921291,,10.300939917,-0.421446448698,0.0,,0.0,0.0,0.726253821684,0.687426640805
1675248831799189183,,10.300939917,-0.421446448698,0.0,,0.0,0.0,0.726253821684,0.687426640805
1675248831890171575,,10.300939917,-0.421446448698,0.0,,0.0,0.0,0.726253821684,0.687426640805
1675248831988900634,,10.300939917,-0.421446448698,0.0,,0.0,0.0,0.726253821684,0.687426640805
1675248832089003349,,10.300939917,-0.421446448698,0.0,,0.0,0.0,0.726253821684,0.687426640805
1675248832178665908,,10.300939917,-0.421446448698,0.0,,0.0,0.0,0.726253821684,0.687426640805
1675248832278887550,,10.300939917,-0.421446448698,0.0,,0.0,0.0,0.726253821684,0.687426640805
1675248832379061532,,10.300939917,-0.421446448698,0.0,,0.0,0.0,0.726253821684,0.687426640805
1675248832499050234,,10.300939917,-0.421446448698,0.0,,0.0,0.0,0.726253821684,0.687426640805
1675248832599091989,,10.300939917,-0.421446448698,0.0,,0.0,0.0,0.726253821684,0.687426640805
1675248832689333956,,10.300939917,-0.421446448698,0.0,,0.0,0.0,0.726253821684,0.687426640805
1675248832788761474,,10.300939917,-0.421446448698,0.0,,0.0,0.0,0.726253821684,0.687426640805
1675248832888802861,,10.300939917,-0.421446448698,0.0,,0.0,0.0,0.726253821684,0.687426640805
1675248832979071960,,10.300939917,-0.421446448698,0.0,,0.0,0.0,0.726253821684,0.687426640805
1675248833078669032,,10.300939917,-0.421446448698,0.0,,0.0,0.0,0.726253821684,0.687426640805
1675248833179434764,,10.300939917,-0.421446448698,0.0,,0.0,0.0,0.726253821684,0.687426640805
1675248833298884401,,10.300939917,-0.421446448698,0.0,,0.0,0.0,0.726253821684,0.687426640805
1675248833388754953,,10.300939917,-0.421446448698,0.0,,0.0,0.0,0.726253821684,0.687426640805
1675248833488695960,,10.300939917,-0.421446448698,0.0,,0.0,0.0,0.726253821684,0.687426640805
1675248833588745587,,10.300939917,-0.421446448698,0.0,,0.0,0.0,0.726253821684,0.687426640805
1675248833678795611,,10.300939917,-0.421446448698,0.0,,0.0,0.0,0.726253821684,0.687426640805
1675248833778808162,,10.300939917,-0.421446448698,0.0,,0.0,0.0,0.726253821684,0.687426640805
1675248833878898452,,10.300939917,-0.421446448698,0.0,,0.0,0.0,0.726253821684,0.687426640805
1675248833998920215,,10.300939917,-0.421446448698,0.0,,0.0,0.0,0.726253821684,0.687426640805
1675248834098878636,,10.300939917,-0.421446448698,0.0,,0.0,0.0,0.726253821684,0.687426640805
1675248834188911364,,10.3008756588,-0.420271041617,0.0,,0.0,0.0,0.725775087678,0.68793206213
1675248834289702750,,10.3006692978,-0.416075148668,0.0,,0.0,0.0,0.722102749819,0.691785818519
1675248834389117534,,10.3005018629,-0.412096169311,0.0,,0.0,0.0,0.719524177387,0.694467391715
1675248834478693026,,10.3003571943,-0.407872155069,0.0,,0.0,0.0,0.716383436172,0.697706795423
1675248834579008140,,10.3001971912,-0.401215252801,0.0,,0.0,0.0,0.71278442913,0.701383174584
1675248834678764531,,10.3000871086,-0.393908506715,0.0,,0.0,0.0,0.709750121181,0.704453522586
1675248834798909204,,10.3000347698,-0.385380118181,0.0,,0.0,0.0,0.706725572416,0.707487784554
1675248834899036412,,10.3000734672,-0.374463176576,0.0,,0.0,0.0,0.702482706371,0.711700813018
1675248834988893795,,10.3002826302,-0.360790926817,0.0,,0.0,0.0,0.697878284354,0.716216378078
1675248835088828713,,10.3007520649,-0.344625495837,0.0,,0.0,0.0,0.692558971382,0.721361262585
1675248835188809140,,10.3015135312,-0.32709042088,0.0,,0.0,0.0,0.686717890985,0.726924025054
1675248835278877659,,10.3026111307,-0.30853538548,0.0,,0.0,0.0,0.680929962418,0.732348541531
1675248835378891596,,10.3040624494,-0.289263549218,0.0,,0.0,0.0,0.675324916946,0.737520343145
1675248835478936143,,10.3059471922,-0.268477728668,0.0,,0.0,0.0,0.66912991029,0.74314545222
1675248835599067059,,10.3084291199,-0.24549570008,0.0,,0.0,0.0,0.662435218005,0.749119204097
1675248835699007669,,10.3115965959,-0.220557302264,0.0,,0.0,0.0,0.654705682312,0.755883899517
1675248835788935143,,10.3293242038,-0.192525940529,0.0,,0.0,0.0,0.642056625416,0.766657217901
1675248835889117164,,10.3345989657,-0.163604270385,0.0,,0.0,0.0,0.633274758183,0.773927051245
1675248835978663020,,10.3410051275,-0.13251648334,0.0,,0.0,0.0,0.623741125194,0.781630992695
1675248836078827091,,10.3486642599,-0.0994128802569,0.0,,0.0,0.0,0.613642198913,0.789584227118
1675248836178816388,,10.3575662006,-0.0651050699691,0.0,,0.0,0.0,0.603026717183,0.797720990299
1675248836299863394,,10.3675876022,-0.030272509987,0.0,,0.0,0.0,0.592177283956,0.805807709299
1675248836399176281,,10.3789387427,0.00544612057333,0.0,,0.0,0.0,0.580718405969,0.814104497573
1675248836489282556,,10.4140551037,0.0323746169061,0.0,,0.0,0.0,0.567151092853,0.823613767415
1675248836589416828,,10.4291436358,0.0714070410519,0.0,,0.0,0.0,0.554154078252,0.832414114222
1675248836689177007,,10.446445662,0.112088158867,0.0,,0.0,0.0,0.540200014936,0.84153665628
1675248836778704344,,10.4662129966,0.154639342361,0.0,,0.0,0.0,0.525268302545,0.850936666469
1675248836878998529,,10.4882624207,0.198114796071,0.0,,0.0,0.0,0.510114238059,0.860106658578
1675248836978768431,,10.5262227592,0.244973337394,0.0,,0.0,0.0,0.492847904386,0.870115476901
1675248837099870999,,10.5520967137,0.287646337679,0.0,,0.0,0.0,0.477030903792,0.878886521018
1675248837188912584,,10.5785336408,0.32783454429,0.0,,0.0,0.0,0.461596140832,0.887090188633
1675248837289167221,,10.6056060756,0.366032051116,0.0,,0.0,0.0,0.446463681216,0.894801755337
1675248837389147832,,10.6323119002,0.401231406376,0.0,,0.0,0.0,0.432924418026,0.901430223743
1675248837489320655,,10.6609894204,0.436628842974,0.0,,0.0,0.0,0.418240560291,0.908336299906
1675248837578671039,,10.7000530727,0.479239933407,0.0,,0.0,0.0,0.404765242218,0.914420635535
1675248837678793817,,10.7330575675,0.515271863722,0.0,,0.0,0.0,0.389006747057,0.9212349053
1675248837799123912,,10.7678465518,0.550611047118,0.0,,0.0,0.0,0.372459984923,0.928048252857
1675248837899155058,,10.8036693259,0.584590265447,0.0,,0.0,0.0,0.356625396722,0.934247465296
1675248837989475620,,10.841036355,0.61769820485,0.0,,0.0,0.0,0.340915955532,0.940093777909
1675248838088982360,,10.8779527032,0.665116080171,0.0,,0.0,0.0,0.329464901832,0.94416782325
1675248838188847348,,10.9159200976,0.695036120429,0.0,,0.0,0.0,0.314695791106,0.949192582704
1675248838278952123,,10.9553407821,0.724094525539,0.0,,0.0,0.0,0.30013690193,0.953896136956
1675248838379097093,,10.9960662259,0.75227830808,0.0,,0.0,0.0,0.285837882493,0.958277989381
1675248838478798855,,11.0375509508,0.7792048642,0.0,,0.0,0.0,0.27116022402,0.96253422428
1675248838599327366,,11.0801277342,0.804982858675,0.0,,0.0,0.0,0.256989061767,0.966414311842
1675248838699629144,,11.0968129046,0.821143471017,0.0,,0.0,0.0,0.241752663353,0.970337904939
1675248838789171201,,11.1409835185,0.844383398595,0.0,,0.0,0.0,0.228520148608,0.973539183433
1675248838889534207,,11.1855843696,0.866340017345,0.0,,0.0,0.0,0.215956583814,0.97640296697
1675248838979167663,,11.2308836571,0.887217656864,0.0,,0.0,0.0,0.203408821838,0.979093892943
1675248839078697417,,11.2607499951,0.906260769105,0.0,,0.0,0.0,0.191361402687,0.981519645021
1675248839179036208,,11.3070166138,0.924807995429,0.0,,0.0,0.0,0.178984318255,0.983851926775
1675248839278712977,,11.3536418538,0.942188407894,0.0,,0.0,0.0,0.16719963101,0.985923061598
1675248839398841104,,11.4009088748,0.958469264432,0.0,,0.0,0.0,0.155371272662,0.987856147236
1675248839488944736,,11.4484232961,0.973621054298,0.0,,0.0,0.0,0.144350939841,0.989526556575
1675248839589081273,,11.487099992,0.982924997409,0.0,,0.0,0.0,0.131763500049,0.991281181126
1675248839689334679,,11.5352851348,0.995843430605,0.0,,0.0,0.0,0.123019887759,0.992404205561
1675248839778633861,,11.5835538029,1.00789242729,0.0,,0.0,0.0,0.115040725471,0.993360776095
1675248839878721925,,11.6321057028,1.01918525698,0.0,,0.0,0.0,0.108217307644,0.994127262641
1675248839978757024,,11.6752193048,1.02928008196,0.0,,0.0,0.0,0.101900523454,0.994794593532
1675248840099303877,,11.7241780758,1.03931986799,0.0,,0.0,0.0,0.0952087345074,0.995457330514
1675248840199042033,,11.7732828747,1.04869648071,0.0,,0.0,0.0,0.0888810723722,0.996042245577
1675248840289418732,,11.8225299517,1.05747673604,0.0,,0.0,0.0,0.0835090775248,0.996507016519
1675248840389147286,,11.8784644604,1.0748592416,0.0,,0.0,0.0,0.0776219013406,0.996982868675
1675248840489194664,,11.9276791939,1.08252054319,0.0,,0.0,0.0,0.0741443581755,0.997247519
1675248840579038614,,11.9769555451,1.08986411594,0.0,,0.0,0.0,0.071436276185,0.997445165633
1675248840678879948,,12.0262586243,1.09695935872,0.0,,0.0,0.0,0.0701168082943,0.997538787815
1675248840778645683,,12.0755351552,1.10390864453,0.0,,0.0,0.0,0.0691410070347,0.997606897102
1675248840900952777,,12.1147071897,1.10400121445,0.0,,0.0,0.0,0.0659068025624,0.997825783078
1675248840988901199,,12.164400442,1.11059711489,0.0,,0.0,0.0,0.0656711649667,0.997841319094
1675248841088793245,,12.2140033017,1.11717359998,0.0,,0.0,0.0,0.0664623966043,0.997788930505
1675248841188898917,,12.2634385164,1.12380975604,0.0,,0.0,0.0,0.0679030094839,0.997691927051
1675248841289079758,,12.316758496,1.12960689161,0.0,,0.0,0.0,0.0694312252547,0.997586740569
1675248841378758866,,12.3662946438,1.13656007722,0.0,,0.0,0.0,0.071679489177,0.997427717096
1675248841479001180,,12.415682892,1.1437744461,0.0,,0.0,0.0,0.0751549819635,0.99717186517
1675248841599269901,,12.4654608015,1.15138292949,0.0,,0.0,0.0,0.0787584985642,0.99689372498
1675248841698974891,,12.5160217265,1.16424464253,0.0,,0.0,0.0,0.0824723041179,0.996593356918
1675248841789073722,,12.5651060207,1.17247805502,0.0,,0.0,0.0,0.0861658729306,0.996280804965
1675248841889459765,,12.6141429978,1.18108804116,0.0,,0.0,0.0,0.0902463923373,0.995919468968
1675248841988797056,,12.6628479559,1.19005164381,0.0,,0.0,0.0,0.0943439577522,0.995539661508
1675248842078939057,,12.711816598,1.19949180585,0.0,,0.0,0.0,0.0991887838055,0.995068633395
1675248842180116695,,12.7694991881,1.20776065132,0.0,,0.0,0.0,0.10688095058,0.994271825208
1675248842299360476,,12.8181884451,1.21842426386,0.0,,0.0,0.0,0.111574071752,0.993756120239
1675248842398919756,,12.866676693,1.22958033048,0.0,,0.0,0.0,0.117158650103,0.993113211425
1675248842488876012,,12.9151141411,1.24125622252,0.0,,0.0,0.0,0.122470892405,0.99247210566
1675248842588862289,,12.9579376468,1.25362074069,0.0,,0.0,0.0,0.12582519068,0.992052428751
1675248842689132486,,13.0061711397,1.26613945234,0.0,,0.0,0.0,0.131113075683,0.991367419973
1675248842778713773,,13.0542664509,1.2791709106,0.0,,0.0,0.0,0.136589042242,0.990627797682
1675248842878911209,,13.1023462194,1.29276055968,0.0,,0.0,0.0,0.141516556596,0.989935888939
1675248842978730100,,13.1481191357,1.30499707093,0.0,,0.0,0.0,0.14668584447,0.989183129169
1675248843098961548,,13.1959671773,1.31959690519,0.0,,0.0,0.0,0.151763661912,0.98841681032
1675248843198897883,,13.2435633413,1.33463663866,0.0,,0.0,0.0,0.156471293494,0.987682506837
1675248843299063131,,13.290936302,1.3500863597,0.0,,0.0,0.0,0.160572542576,0.987024041536
1675248843389689552,,13.3382197462,1.36593066222,0.0,,0.0,0.0,0.164217233081,0.986424198993
1675248843489123119,,13.3839166303,1.39290596737,0.0,,0.0,0.0,0.170778786464,0.985309396126
1675248843579220745,,13.4308144872,1.40972602012,0.0,,0.0,0.0,0.174425679491,0.984670341959
1675248843678769311,,13.4776800002,1.42691839514,0.0,,0.0,0.0,0.177992948134,0.984031762909
1675248843778852023,,13.5243259995,1.44440540436,0.0,,0.0,0.0,0.181243112645,0.983438322478
1675248843899229227,,13.568574883,1.46143203524,0.0,,0.0,0.0,0.181019325001,0.983479539175
1675248843989364932,,13.6154129629,1.47932443491,0.0,,0.0,0.0,0.183442917209,0.983030363786
1675248844088880103,,13.6621086495,1.49744799264,0.0,,0.0,0.0,0.186542669291,0.982446859903
1675248844188844100,,13.7086642564,1.51583606965,0.0,,0.0,0.0,0.189196166039,0.981939311137
1675248844279423569,,13.7551392667,1.53448424664,0.0,,0.0,0.0,0.192049935942,0.981385154822
1675248844378944165,,13.7959374461,1.5560623691,0.0,,0.0,0.0,0.194314928227,0.980939197233
1675248844478802730,,13.8421138987,1.5751459899,0.0,,0.0,0.0,0.197326141541,0.980337897801
1675248844599144140,,13.888249851,1.59457888763,0.0,,0.0,0.0,0.200600296184,0.979673170588
1675248844699142735,,13.9340732975,1.61419941042,0.0,,0.0,0.0,0.20297314397,0.979184304831
1675248844788762451,,13.973701932,1.62794863862,0.0,,0.0,0.0,0.205507091838,0.978655626461
1675248844889020595,,14.019414751,1.64806897236,0.0,,0.0,0.0,0.20795250099,0.978138925374
1675248844990022041,,14.0652187753,1.66849064916,0.0,,0.0,0.0,0.210142788034,0.977670705625
1675248845078615736,,14.1106240415,1.68899106192,0.0,,0.0,0.0,0.212315404991,0.977201191569
1675248845178755764,,14.1559971505,1.70971187666,0.0,,0.0,0.0,0.214279578554,0.976772369703
1675248845278716248,,14.1956845725,1.73487216809,0.0,,0.0,0.0,0.215180944074,0.976574196519
1675248845400791660,,14.2407113543,1.75575823349,0.0,,0.0,0.0,0.21692083486,0.97618919857
1675248845488778383,,14.2863427867,1.77710575948,0.0,,0.0,0.0,0.21836129049,0.975867996614
1675248845589106927,,14.3310595405,1.79818732391,0.0,,0.0,0.0,0.219588977938,0.975592476789
1675248845689078834,,14.3759183807,1.81947637915,0.0,,0.0,0.0,0.220488588127,0.975389554232
1675248845778738828,,14.4151793867,1.83441582453,0.0,,0.0,0.0,0.221736135772,0.975106704978
1675248845879034229,,14.4600292665,1.8559495824,0.0,,0.0,0.0,0.222895499523,0.974842344327
1675248845978793420,,14.5048937556,1.87761741148,0.0,,0.0,0.0,0.223835022958,0.9746270479
1675248846099589586,,14.5501178382,1.89957019426,0.0,,0.0,0.0,0.224836683593,0.974396462284
1675248846199039552,,14.5947124085,1.92133151504,0.0,,0.0,0.0,0.225771176654,0.974180361018
1675248846298910901,,14.6405492385,1.94459976585,0.0,,0.0,0.0,0.225532923089,0.974235546776
1675248846388845229,,14.68543218,1.96657110549,0.0,,0.0,0.0,0.226541671996,0.974001473741
1675248846489389866,,14.7304959036,1.98873755633,0.0,,0.0,0.0,0.22741358271,0.973798265761
1675248846578988332,,14.7753416478,2.01088751127,0.0,,0.0,0.0,0.227979663927,0.973665893844
1675248846678589020,,14.8228302242,2.03399553617,0.0,,0.0,0.0,0.228179770354,0.973619018098
1675248846778730877,,14.8675685128,2.05620141929,0.0,,0.0,0.0,0.229264876891,0.973364071776
1675248846899076726,,14.9129495284,2.0788420538,0.0,,0.0,0.0,0.230061991776,0.973175975834
1675248846998986772,,14.9579123111,2.10136237916,0.0,,0.0,0.0,0.230539403497,0.973062990476
1675248847089606563,,15.0029684284,2.12400756201,0.0,,0.0,0.0,0.231223088553,0.972900757179
1675248847188803517,,15.0496688261,2.14141835768,0.0,,0.0,0.0,0.231787280402,0.972766496465
1675248847288888840,,15.0943040639,2.16396112215,0.0,,0.0,0.0,0.23220089265,0.972667849501
1675248847379106622,,15.1388323248,2.18650879955,0.0,,0.0,0.0,0.232789026157,0.972527258899
1675248847478655639,,15.1834448302,2.20917545081,0.0,,0.0,0.0,0.233409132865,0.972378617975
1675248847578778022,,15.2278592256,2.2318109183,0.0,,0.0,0.0,0.234172898594,0.972194966848
1675248847699535903,,15.273359455,2.25135587191,0.0,,0.0,0.0,0.234753860406,0.972054846716
1675248847788834938,,15.3178500635,2.2741796823,0.0,,0.0,0.0,0.235358181112,0.971908702803
1675248847889043473,,15.3622383708,2.29704898705,0.0,,0.0,0.0,0.236177633112,0.97170989787
1675248847988768716,,15.4066913796,2.32004349626,0.0,,0.0,0.0,0.237102261892,0.971484697463
1675248848078634288,,15.4509975499,2.34305775898,0.0,,0.0,0.0,0.237963066328,0.97127420385
1675248848178841144,,15.4948150856,2.36526586033,0.0,,0.0,0.0,0.239550175934,0.970883985454
1675248848279114730,,15.5389780147,2.38847086716,0.0,,0.0,0.0,0.240226949621,0.970716752032
1675248848398926172,,15.5833160706,2.4118766097,0.0,,0.0,0.0,0.241310902248,0.970447859731
1675248848499148285,,15.627505046,2.43530930332,0.0,,0.0,0.0,0.242069411757,0.970258934456
1675248848589046371,,15.6648878933,2.44954784366,0.0,,0.0,0.0,0.242065050008,0.970260022656
1675248848689290575,,15.7093121962,2.47320915655,0.0,,0.0,0.0,0.242795416465,0.970077515327
1675248848788871708,,15.7531240025,2.49661512525,0.0,,0.0,0.0,0.243199227541,0.969976358332
1675248848879008749,,15.7969808562,2.52009574848,0.0,,0.0,0.0,0.243339081589,0.969941282435
1675248848979369239,,15.8408749896,2.54358374203,0.0,,0.0,0.0,0.242894908645,0.97005260855
1675248849079007829,,15.88368949,2.5696477772,0.0,,0.0,0.0,0.243280473682,0.969955984117
1675248849199207488,,15.9273685031,2.59301663495,0.0,,0.0,0.0,0.242409376899,0.970174053452
1675248849289339583,,15.9717063423,2.61663624877,0.0,,0.0,0.0,0.241476246207,0.970406730458
1675248849388750094,,16.0159547524,2.64008971341,0.0,,0.0,0.0,0.24048628258,0.970652537158
1675248849488938523,,16.0602044424,2.66341994898,0.0,,0.0,0.0,0.239154885229,0.970981431785
1675248849578710344,,16.1057679232,2.68348688769,0.0,,0.0,0.0,0.237729611717,0.971331370704
1675248849678949390,,16.1502921459,2.70665173169,0.0,,0.0,0.0,0.23618152998,0.971708950713
1675248849778748420,,16.1946413246,2.72957829541,0.0,,0.0,0.0,0.235400787579,0.971898384198
1675248849902894717,,16.239344825,2.75255544033,0.0,,0.0,0.0,0.234078840743,0.972217617777
1675248849991214350,,16.2847538991,2.77885160535,0.0,,0.0,0.0,0.232177751174,0.972673373677
1675248850099049352,,16.3282955101,2.80086838446,0.0,,0.0,0.0,0.230633062333,0.973040795938
1675248850198821996,,16.3726916591,2.82313293689,0.0,,0.0,0.0,0.228892363708,0.973451737805
1675248850289013921,,16.4175084767,2.8453776116,0.0,,0.0,0.0,0.226518108492,0.974006954044
1675248850378759923,,16.4620632239,2.86722238696,0.0,,0.0,0.0,0.223367865865,0.974734218389
1675248850479027020,,16.5010811133,2.88789496048,0.0,,0.0,0.0,0.220899148008,0.975296655592
1675248850578849587,,16.5460829635,2.90931068714,0.0,,0.0,0.0,0.217185636331,0.976130318847
1675248850699152025,,16.5910522673,2.93029186899,0.0,,0.0,0.0,0.213318367032,0.976982740015
1675248850789182746,,16.6363773849,2.95102366515,0.0,,0.0,0.0,0.209622660298,0.977782358345
1675248850888878152,,16.6818980942,2.9714269895,0.0,,0.0,0.0,0.205893601208,0.97857438398
1675248850988905046,,16.7261471211,2.98823004715,0.0,,0.0,0.0,0.201864465766,0.97941346604
1675248851080486064,,16.7721004013,3.00793683524,0.0,,0.0,0.0,0.197706756796,0.980261209228
1675248851178974948,,16.8182124805,3.02723325908,0.0,,0.0,0.0,0.193092796478,0.981180499168
1675248851279060005,,16.8643600317,3.04605696838,0.0,,0.0,0.0,0.188680819045,0.982038465909
1675248851398890728,,16.9109174614,3.06456469832,0.0,,0.0,0.0,0.184351946746,0.982860295124
1675248851499113554,,16.955284856,3.08459489296,0.0,,0.0,0.0,0.182857140008,0.983139494857
1675248851588791329,,17.001923953,3.10248771625,0.0,,0.0,0.0,0.17823779067,0.983987444014
1675248851689029970,,17.0486395762,3.11992059163,0.0,,0.0,0.0,0.173778116595,0.984784832434
1675248851788842740,,17.0956793536,3.13697384432,0.0,,0.0,0.0,0.169097357186,0.985599352573
1675248851878699749,,17.1335289339,3.14587077022,0.0,,0.0,0.0,0.165479994068,0.986213147126
1675248851978744994,,17.1807017255,3.16204234748,0.0,,0.0,0.0,0.160045265151,0.987109676329
1675248852079254096,,17.228019709,3.17772794359,0.0,,0.0,0.0,0.155084214287,0.987901253405
1675248852199160553,,17.2754609975,3.19293187563,0.0,,0.0,0.0,0.150304315909,0.988639778999
1675248852289965637,,17.322984877,3.20763381521,0.0,,0.0,0.0,0.145333280867,0.989382755799
1675248852388828188,,17.3701672111,3.2207231272,0.0,,0.0,0.0,0.142754354324,0.989758149409
1675248852488751326,,17.4176535894,3.23463867157,0.0,,0.0,0.0,0.138086785797,0.990420132867
1675248852580240954,,17.4655957785,3.24820200174,0.0,,0.0,0.0,0.133833755617,0.991003797095
1675248852678876818,,17.5135065017,3.26130497995,0.0,,0.0,0.0,0.129137537096,0.991626692114
1675248852778906856,,17.5617484906,3.27401178538,0.0,,0.0,0.0,0.124660061585,0.992199510706
1675248852899445354,,17.6091593773,3.28159443748,0.0,,0.0,0.0,0.118178355209,0.992992384845
1675248852998860732,,17.657482378,3.2932015555,0.0,,0.0,0.0,0.114326824995,0.993443192682
1675248853088897430,,17.7059774885,3.30447476961,0.0,,0.0,0.0,0.110921162088,0.993829208567
1675248853188863495,,17.7544566129,3.31539494811,0.0,,0.0,0.0,0.107936601998,0.994157779203
1675248853289016452,,17.8025484424,3.3259177458,0.0,,0.0,0.0,0.104745049004,0.994499107445
1675248853378682289,,17.8568065216,3.3431114126,0.0,,0.0,0.0,0.101525932417,0.994832893026
1675248853478776653,,17.9064785704,3.35331129645,0.0,,0.0,0.0,0.0981989685232,0.995166801386
1675248853578711091,,17.9560423472,3.36313435842,0.0,,0.0,0.0,0.0948731740539,0.99548936752
1675248853698912830,,18.0052697164,3.37255126762,0.0,,0.0,0.0,0.0916130181073,0.99579468512
1675248853788994681,,18.0586223635,3.38984690246,0.0,,0.0,0.0,0.0907448223622,0.995874177401
1675248853888827458,,18.1078286758,3.39883272141,0.0,,0.0,0.0,0.0876802053682,0.996148674439
1675248853988804946,,18.1570853489,3.40753429695,0.0,,0.0,0.0,0.0848353564639,0.996394983073
1675248854078831452,,18.2064864849,3.41595169651,0.0,,0.0,0.0,0.0815040019932,0.996673014413
1675248854178933100,,18.255932593,3.42403709272,0.0,,0.0,0.0,0.077831811146,0.996966503536
1675248854278778891,,18.3099128815,3.42758794883,0.0,,0.0,0.0,0.0710666591198,0.997471568498
1675248854399062756,,18.3594694695,3.43449636511,0.0,,0.0,0.0,0.0622504122812,0.998060562376
1675248854499159576,,18.4091830091,3.44051925487,0.0,,0.0,0.0,0.0513985807161,0.998678219398
1675248854588822851,,18.4587906461,3.44548838966,0.0,,0.0,0.0,0.0407539465977,0.999169212815
1675248854688821876,,18.5083648556,3.44936183696,0.0,,0.0,0.0,0.0302900973741,0.999541149729
1675248854788740579,,18.5562803451,3.45597125353,0.0,,0.0,0.0,0.0226225666942,0.99974407699
1675248854879003831,,18.602854435,3.45795739481,0.0,,0.0,0.0,0.0130090693612,0.999915378477
1675248854978803589,,18.6465483151,3.45898320099,0.0,,0.0,0.0,0.00362317237078,0.999993436289
1675248855078768930,,18.6862977502,3.45919933348,0.0,,0.0,0.0,-0.00482637122341,0.999988353003
1675248855199722041,,18.7217838672,3.45877083532,0.0,,0.0,0.0,-0.0126554036807,0.999919917172
1675248855289551083,,18.7485802588,3.45277317528,0.0,,0.0,0.0,-0.0236320465441,0.999720724191
1675248855388858139,,18.7734405286,3.45153211488,0.0,,0.0,0.0,-0.0326804791472,0.999465850484
1675248855488892660,,18.7904520729,3.45037946089,0.0,,0.0,0.0,-0.042686669191,0.999088508729
1675248855588913476,,18.8013590775,3.4494307727,0.0,,0.0,0.0,-0.0500387974344,0.998747274715
1675248855678599217,,18.809401016,3.44860581044,0.0,,0.0,0.0,-0.0583698003185,0.998295029744
1675248855778797276,,18.8163031912,3.44777413612,0.0,,0.0,0.0,-0.0691547393729,0.997605945262
1675248855879472998,,18.8232591519,3.44676253717,0.0,,0.0,0.0,-0.0841357922326,0.996454298232
1675248855999317116,,18.8304781148,3.44549209918,0.0,,0.0,0.0,-0.0995742249689,0.995030137092
1675248856089508617,,18.8384593308,3.44381396107,0.0,,0.0,0.0,-0.118432277627,0.992962132015
1675248856188843084,,18.8550348088,3.43965732814,0.0,,0.0,0.0,-0.137057165612,0.990563139509
1675248856288934029,,18.8645781508,3.43689842847,0.0,,0.0,0.0,-0.159352662983,0.987221722208
1675248856378781558,,18.8743587969,3.43358035755,0.0,,0.0,0.0,-0.182769094589,0.983155866617
1675248856478824250,,18.8839166327,3.42980420532,0.0,,0.0,0.0,-0.21111755729,0.977460677984
1675248856578865897,,18.893319117,3.42544637595,0.0,,0.0,0.0,-0.24038258906,0.970678222109
1675248856699302180,,18.907222354,3.42872051123,0.0,,0.0,0.0,-0.274789501192,0.961504409784
1675248856789041306,,18.9147088394,3.42396701935,0.0,,0.0,0.0,-0.307299605321,0.951612816522
1675248856889057879,,18.9180908087,3.42149755841,0.0,,0.0,0.0,-0.33930666874,0.940675812673
1675248856988966778,,18.9245648275,3.42981218576,0.0,,0.0,0.0,-0.363655739113,0.93153341508
1675248857089104505,,18.9242978664,3.43006913014,0.0,,0.0,0.0,-0.387942569431,0.921683548092
1675248857178999660,,18.9236972699,3.43069217998,0.0,,0.0,0.0,-0.414183056992,0.910193603197
1675248857278959439,,18.9234598396,3.43096686465,0.0,,0.0,0.0,-0.442091263708,0.896970074503
1675248857378684523,,18.9152890189,3.43671786853,0.0,,0.0,0.0,-0.468474298511,0.8834771257
1675248857499457667,,18.9152916824,3.43671274744,0.0,,0.0,0.0,-0.494477002932,0.869190711853
1675248857588859104,,18.9153113102,3.43668023005,0.0,,0.0,0.0,-0.520169615372,0.8540629785
1675248857689069039,,18.9152729121,3.43675665683,0.0,,0.0,0.0,-0.545488359341,0.838118398452
1675248857788738856,,18.9206555055,3.43533481508,0.0,,0.0,0.0,-0.570456236656,0.821327999073
1675248857879136240,,18.9206119819,3.43545329519,0.0,,0.0,0.0,-0.594492723578,0.804100989685
1675248857978714488,,18.9205799661,3.43556333002,0.0,,0.0,0.0,-0.618178552076,0.78603770759
1675248858078992337,,18.9205654519,3.43562521886,0.0,,0.0,0.0,-0.641254002508,0.767328680728
1675248858199341689,,18.924406478,3.43391692109,0.0,,0.0,0.0,-0.662997498362,0.748621611474
1675248858300928747,,18.9243806434,3.43414449676,0.0,,0.0,0.0,-0.684797697392,0.728733225293
1675248858388754440,,18.9243683601,3.43437734933,0.0,,0.0,0.0,-0.706319265481,0.707893420799
1675248858488795814,,18.9243693102,3.4345945976,0.0,,0.0,0.0,-0.727223481096,0.686400763798
1675248858588864369,,18.9267874622,3.43191830467,0.0,,0.0,0.0,-0.746663248945,0.665202219385
1675248858678735838,,18.926810206,3.43209155947,0.0,,0.0,0.0,-0.766530425837,0.642207992994
1675248858778997621,,18.9268508061,3.43230742471,0.0,,0.0,0.0,-0.785555642633,0.618791024763
1675248858888681565,,18.926887885,3.43245584847,0.0,,0.0,0.0,-0.803931276777,0.594722205925
1675248858999220715,,18.9266700101,3.42165723041,0.0,,0.0,0.0,-0.82069209948,0.571370700904
1675248859089509305,,18.9267606253,3.42189536596,0.0,,0.0,0.0,-0.837404493712,0.546583675124
1675248859188992631,,18.9268644269,3.42212776487,0.0,,0.0,0.0,-0.853289380281,0.521437660224
1675248859288817087,,18.9245142916,3.4263704039,0.0,,0.0,0.0,0.869215502727,-0.494433423039
1675248859379148608,,18.9246186231,3.42654421889,0.0,,0.0,0.0,0.883165182275,-0.469062107634
1675248859479450424,,18.9246917438,3.42665057137,0.0,,0.0,0.0,0.895030547596,-0.446004841756
1675248859579381492,,18.9248155439,3.42681230257,0.0,,0.0,0.0,0.905012114434,-0.425385792813
1675248859699082380,,18.9244076909,3.42855527527,0.0,,0.0,0.0,0.912473078886,-0.409136750131
1675248859798944566,,18.9246250945,3.42879723106,0.0,,0.0,0.0,0.917577542085,-0.397556856641
1675248859889531478,,18.9248381768,3.42902422636,0.0,,0.0,0.0,0.919694478412,-0.392634774794
1675248859988707603,,18.9249295777,3.42911951113,0.0,,0.0,0.0,0.920334529982,-0.391132142534
1675248860089062780,,18.9245732781,3.42874951017,0.0,,0.0,0.0,0.920407769927,-0.39095976399
1675248860178770241,,18.9244650024,3.42863711359,0.0,,0.0,0.0,0.922205980804,-0.386699015993
1675248860279021865,,18.9244461235,3.4286180755,0.0,,0.0,0.0,0.925002781775,-0.379960331757
1675248860378801926,,18.9243614833,3.42853529324,0.0,,0.0,0.0,0.927259228499,-0.374419982324
1675248860498837127,,18.9244686463,3.42863788917,0.0,,0.0,0.0,0.928630211555,-0.371006644398
1675248860589211363,,18.9245001952,3.428668263,0.0,,0.0,0.0,0.928887074403,-0.370363069172
1675248860688898614,,18.9244467114,3.42861747457,0.0,,0.0,0.0,0.928718107668,-0.370786564603
1675248860788714045,,18.9244467114,3.42861747457,0.0,,0.0,0.0,0.928871992846,-0.37040089215
1675248860880045961,,18.9244467114,3.42861747457,0.0,,0.0,0.0,0.92887964528,-0.3703817012
1675248860978833998,,18.9244467114,3.42861747457,0.0,,0.0,0.0,0.92887964528,-0.3703817012
1675248861078718826,,18.9244467114,3.42861747457,0.0,,0.0,0.0,0.92887964528,-0.3703817012
1675248861179157055,,18.9244467114,3.42861747457,0.0,,0.0,0.0,0.92887964528,-0.3703817012
1675248861299185464,,18.9244467114,3.42861747457,0.0,,0.0,0.0,0.92887964528,-0.3703817012
1675248861388807831,,18.9244416522,3.42861267665,0.0,,0.0,0.0,0.928873860016,-0.370396209727
1675248861489130134,,18.9236073702,3.42782084194,0.0,,0.0,0.0,0.92865874302,-0.370935222125
1675248861589053762,,18.9205848537,3.42494021276,0.0,,0.0,0.0,0.928097270802,-0.372337825007
1675248861678805364,,18.9156937297,3.42026286063,0.0,,0.0,0.0,0.927725399813,-0.373263422454
1675248861779195647,,18.9092442374,3.41405479928,0.0,,0.0,0.0,0.926893651897,-0.375324070735
1675248861878931725,,18.9025113162,3.40752890624,0.0,,0.0,0.0,0.926277591481,-0.37684190786
1675248861999221575,,18.8956685837,3.4008499588,0.0,,0.0,0.0,0.92569165448,-0.378278945787
1675248862099166608,,18.8887182207,3.39402593936,0.0,,0.0,0.0,0.925195346247,-0.379491200533
1675248862188735102,,18.8817817041,3.38717680371,0.0,,0.0,0.0,0.924610679957,-0.380913494786
1675248862288873887,,18.8748208966,3.38026727255,0.0,,0.0,0.0,0.924256309237,-0.381772543323
1675248862388762943,,18.8676807527,3.37314742003,0.0,,0.0,0.0,0.923685013211,-0.383152706332
1675248862479095087,,18.8605262033,3.36596959834,0.0,,0.0,0.0,0.92302870288,-0.38473109266
1675248862579080675,,18.8535193305,3.35889273023,0.0,,0.0,0.0,0.922386004883,-0.386269411157
1675248862678703624,,18.8464474962,3.35170041095,0.0,,0.0,0.0,0.921573607549,-0.38820366545
1675248862798877420,,18.839398049,3.34447032065,0.0,,0.0,0.0,0.920682778643,-0.390311697379
1675248862889159467,,18.8323683772,3.33718626711,0.0,,0.0,0.0,0.919319273351,-0.393512482197
1675248862988952700,,18.825906839,3.33039683973,0.0,,0.0,0.0,0.917750069755,-0.397158418601
1675248863089150912,,18.8207658469,3.32490855599,0.0,,0.0,0.0,0.915953089143,-0.40128535793
1675248863188818455,,18.8176223299,3.32149597527,0.0,,0.0,0.0,0.914295889383,-0.405046943771
1675248863278919536,,18.8161785762,3.31991054572,0.0,,0.0,0.0,0.91498191519,-0.403494851113
1675248863378901686,,18.8155932678,3.31927163468,0.0,,0.0,0.0,0.916791834705,-0.399365411395
1675248863499243078,,18.8153298982,3.318989347,0.0,,0.0,0.0,0.920632014512,-0.390431420171
1675248863599233900,,18.8151806942,3.3188359229,0.0,,0.0,0.0,0.925302153414,-0.379230701404
1675248863689104888,,18.8150663777,3.31872347619,0.0,,0.0,0.0,0.931254392079,-0.364369671123
1675248863788735981,,18.8150278382,3.31868823547,0.0,,0.0,0.0,0.937649318429,-0.347582732093
1675248863888965732,,18.8149617582,3.31863163767,0.0,,0.0,0.0,0.944883244637,-0.32740747396
1675248863978982481,,18.8149811598,3.31864666991,0.0,,0.0,0.0,0.95273716186,-0.303795820266
1675248864079185956,,18.8115901771,3.32428133015,0.0,,0.0,0.0,0.961803349793,-0.273741331054
1675248864199337397,,18.8115054619,3.32423116172,0.0,,0.0,0.0,0.970019866288,-0.243025634465
1675248864299154036,,18.8113916729,3.32417156813,0.0,,0.0,0.0,0.976976547534,-0.213346726174
1675248864388747518,,18.8112300036,3.32409736559,0.0,,0.0,0.0,0.982959419712,-0.183822684124
1675248864489122905,,18.8119135109,3.32659573112,0.0,,0.0,0.0,0.987952938814,-0.154754614435
1675248864588744849,,18.8117696139,3.32655171739,0.0,,0.0,0.0,0.99218280363,-0.124792965272
1675248864679236720,,18.8115692706,3.32650174014,0.0,,0.0,0.0,0.995484888653,-0.0949201583651
1675248864778965237,,18.8114466077,3.32647836862,0.0,,0.0,0.0,0.997854005944,-0.0654781094763
1675248864878982159,,18.814293121,3.32631995362,0.0,,0.0,0.0,0.999384117556,-0.0350911039531
1675248864999060717,,18.8142165189,3.32631414231,0.0,,0.0,0.0,0.999987278636,-0.00504406254657
1675248865099096386,,18.8141643386,3.32631376227,0.0,,0.0,0.0,0.99969797444,0.0245755956313
1675248865188786700,,18.8140877452,3.32631807913,0.0,,0.0,0.0,0.998520544026,0.054375758913
1675248865288921696,,18.8125312701,3.32807663224,0.0,,0.0,0.0,0.99638335361,0.0849718344389
1675248865388874853,,18.8124829578,3.32808532091,0.0,,0.0,0.0,0.993402947151,0.114675998321
1675248865479025612,,18.8123778742,3.32811164673,0.0,,0.0,0.0,0.989536302137,0.144284118161
1675248865579014234,,18.8122701669,3.32814425845,0.0,,0.0,0.0,0.98478173671,0.173795658869
1675248865678696815,,18.8238430885,3.33132398139,0.0,,0.0,0.0,0.979106070116,0.203350199069
1675248865799134020,,18.8237044598,3.33138491305,0.0,,0.0,0.0,0.972851836439,0.231428832122
1675248865899197124,,18.8237126061,3.33137865898,0.0,,0.0,0.0,0.966378958069,0.257121973783
1675248865988981132,,18.8326101985,3.32693438397,0.0,,0.0,0.0,0.961239200927,0.275715793166
1675248866089154877,,18.8326852741,3.3268867065,0.0,,0.0,0.0,0.956475135138,0.291813837682
1675248866188893045,,18.832819763,3.32679574049,0.0,,0.0,0.0,0.953179632832,0.302404675153
1675248866278706379,,18.8328581102,3.32676891283,0.0,,0.0,0.0,0.950863614627,0.309610055359
1675248866379520440,,18.8328451419,3.32677787199,0.0,,0.0,0.0,0.949281983435,0.314426010257
1675248866498919481,,18.83277016,3.32683322352,0.0,,0.0,0.0,0.948143518699,0.317842520675
1675248866598818288,,18.8327491332,3.32684948319,0.0,,0.0,0.0,0.94664169998,0.32228790213
1675248866689217524,,18.8326885414,3.32689586894,0.0,,0.0,0.0,0.945371022123,0.325996365823
1675248866788757452,,18.8326521341,3.32692465255,0.0,,0.0,0.0,0.944011311412,0.329913085411
1675248866889067261,,18.8335576482,3.32620047125,0.0,,0.0,0.0,0.943111788411,0.33247579545
1675248866978945125,,18.8368589122,3.32355156927,0.0,,0.0,0.0,0.944146679081,0.329525489727
1675248867078862348,,18.8415561798,3.31983667223,0.0,,0.0,0.0,0.945882483565,0.324509363939
1675248867178972491,,18.8482553159,3.31463306475,0.0,,0.0,0.0,0.947128921352,0.320853247355
1675248867299395055,,18.8572451203,3.30778458671,0.0,,0.0,0.0,0.948978906888,0.315339553945
1675248867388925694,,18.8680165449,3.29977804157,0.0,,0.0,0.0,0.950904329313,0.309484985894
1675248867489089148,,18.8805840987,3.29066001425,0.0,,0.0,0.0,0.952708973051,0.303884209311
1675248867588885358,,18.8941445517,3.28106904199,0.0,,0.0,0.0,0.954631398263,0.297790015701
1675248867679088012,,18.9084105607,3.27125203756,0.0,,0.0,0.0,0.956494365231,0.291750799966
1675248867778961055,,18.9231652542,3.26137063673,0.0,,0.0,0.0,0.958440655589,0.285291972749
1675248867878972837,,18.9381058416,3.25165470129,0.0,,0.0,0.0,0.960384681038,0.278677707086
1675248867999614325,,18.9532250379,3.24211475831,0.0,,0.0,0.0,0.962242152657,0.272194856031
1675248868099020161,,18.96842359,3.23281651067,0.0,,0.0,0.0,0.964092028374,0.265568373164
1675248868188776454,,18.9836074763,3.22380761522,0.0,,0.0,0.0,0.965918505864,0.258846363756
1675248868288954971,,18.9988318048,3.21505447863,0.0,,0.0,0.0,0.967670002744,0.25221967764
1675248868388990352,,19.0140737019,3.2065657915,0.0,,0.0,0.0,0.969383846668,0.245550316269
1675248868478905122,,19.0293151498,3.19835681597,0.0,,0.0,0.0,0.971006949856,0.239051256705
1675248868578919280,,19.0442615952,3.19055755188,0.0,,0.0,0.0,0.972533614621,0.232762472129
1675248868678589330,,19.057347117,3.17980463158,0.0,,0.0,0.0,0.973111484677,0.230334622645
1675248868799083154,,19.0687817056,3.17408455684,0.0,,0.0,0.0,0.974141009024,0.225940909393
1675248868898990807,,19.0787275211,3.16922367329,0.0,,0.0,0.0,0.97506491807,0.221919817836
1675248868989378480,,19.0877581977,3.16489995169,0.0,,0.0,0.0,0.975911859285,0.218165173451
1675248869089065407,,19.0967476925,3.16068645904,0.0,,0.0,0.0,0.976964669671,0.213401111089
1675248869188920035,,19.1059579886,3.15648742416,0.0,,0.0,0.0,0.978570468047,0.205912212038
1675248869279252800,,19.1142965465,3.15284307279,0.0,,0.0,0.0,0.980323452877,0.19739789193
1675248869378943627,,19.1205883345,3.15021250367,0.0,,0.0,0.0,0.981675561287,0.190559944299
1675248869499670382,,19.1241237872,3.14878912332,0.0,,0.0,0.0,0.982824236227,0.18454408873
1675248869598958793,,19.1251025082,3.14841041131,0.0,,0.0,0.0,0.984660569071,0.174480840544
1675248869689197909,,19.1254733665,3.14827526329,0.0,,0.0,0.0,0.987005763214,0.160684857355
1675248869788811433,,19.1256310023,3.14822323713,0.0,,0.0,0.0,0.989721281768,0.143009735389
1675248869889039018,,19.1256838867,3.14820854855,0.0,,0.0,0.0,0.992392472178,0.12311450428
1675248869978797113,,19.1291089198,3.1418589083,0.0,,0.0,0.0,0.99516469437,0.0982203190725
1675248870079017018,,19.129181387,3.14184585568,0.0,,0.0,0.0,0.997569537534,0.0696779576616
1675248870178802500,,19.1292756885,3.14183380754,0.0,,0.0,0.0,0.999264034769,0.0383586863324
1675248870299062767,,19.1294514928,3.14182203315,0.0,,0.0,0.0,0.99997169209,0.00752429528508
1675248870389114700,,19.1316519036,3.13659764588,0.0,,0.0,0.0,0.999791247891,-0.0204318535937
1675248870489124435,,19.1317901203,3.13660357137,0.0,,0.0,0.0,0.998759725973,-0.0497896553007
1675248870588997085,,19.1318748442,3.13661267269,0.0,,0.0,0.0,0.996939985386,-0.0781707460575
1675248870688961253,,19.1319987895,3.13663348053,0.0,,0.0,0.0,0.994766517806,-0.102174238693
1675248870780092988,,19.1360047263,3.13442362476,0.0,,0.0,0.0,0.992645857583,-0.121054539043
1675248870879011205,,19.1360114928,3.13442520983,0.0,,0.0,0.0,0.990981594582,-0.133998056704
1675248870978933078,,19.1359649716,3.13441220246,0.0,,0.0,0.0,0.990003831091,-0.14104047088
1675248871099079134,,19.1358224136,3.13437074055,0.0,,0.0,0.0,0.989442357031,-0.144926954404
1675248871189653266,,19.1360345283,3.1344338873,0.0,,0.0,0.0,0.989046457763,-0.147604554085
1675248871289160632,,19.1358469292,3.13437592444,0.0,,0.0,0.0,0.988366589289,-0.152090384895
1675248871388820001,,19.1356361294,3.1343093053,0.0,,0.0,0.0,0.987647997673,-0.156688968001
1675248871480309349,,19.13548153,3.13425871861,0.0,,0.0,0.0,0.986705594129,-0.16251790829
1675248871579233810,,19.1343920487,3.13388588032,0.0,,0.0,0.0,0.986060069877,-0.166389719013
1675248871678811554,,19.1304765866,3.13253627153,0.0,,0.0,0.0,0.986692369812,-0.162598177585
1675248871798983864,,19.1244096577,3.13050864435,0.0,,0.0,0.0,0.987957151654,-0.154727717282
1675248871899961323,,19.1160330651,3.12783021552,0.0,,0.0,0.0,0.988852123877,-0.14890089692
1675248871988803623,,19.1054020893,3.12461064381,0.0,,0.0,0.0,0.99021435111,-0.139554788006
1675248872089105165,,19.0922935419,3.12086425974,0.0,,0.0,0.0,0.991355774403,-0.131201099685
1675248872188806690,,19.0765638905,3.11670098601,0.0,,0.0,0.0,0.992636755505,-0.121129152648
1675248872278809923,,19.0584022274,3.11227640622,0.0,,0.0,0.0,0.993940125624,-0.109922821446
1675248872378830832,,19.0376761579,3.10772009126,0.0,,0.0,0.0,0.995230804631,-0.0975481702206
1675248872478877620,,19.0164921377,3.10360625487,0.0,,0.0,0.0,0.996257765565,-0.0864318491698
1675248872599120652,,18.9953742889,3.09996754074,0.0,,0.0,0.0,0.997044392446,-0.0768275959047
1675248872699133357,,18.9744086833,3.09677100548,0.0,,0.0,0.0,0.997698749972,-0.0678026865612
1675248872788701849,,18.9533285279,3.09394897666,0.0,,0.0,0.0,0.998257363507,-0.0590104753753
1675248872889229005,,18.9321796587,3.09149456315,0.0,,0.0,0.0,0.998737368381,-0.0502361324181
1675248872979209331,,18.9109206424,3.08941943397,0.0,,0.0,0.0,0.999145117446,-0.0413404678729
1675248873078815471,,18.8950019468,3.08660472127,0.0,,0.0,0.0,0.999477084753,-0.0323350746587
1675248873179010284,,18.8739510844,3.08529190417,0.0,,0.0,0.0,0.999723161195,-0.0235287265
1675248873299447948,,18.8530823182,3.0843566721,0.0,,0.0,0.0,0.999892507792,-0.0146619528282
1675248873399116456,,18.8333684981,3.08382596593,0.0,,0.0,0.0,0.99998035395,-0.00626831036865
1675248873489218856,,18.8165962166,3.08363880976,0.0,,0.0,0.0,0.999999999987,5.13517218192e-06
1675248873588787171,,18.803259325,3.08365230809,0.0,,0.0,0.0,0.999988812871,0.00473013041447
1675248873688946200,,18.7923618749,3.08376278208,0.0,,0.0,0.0,0.999964635158,0.00841001982679
1675248873779241820,,18.7826032416,3.08393851012,0.0,,0.0,0.0,0.999925836871,0.0121787010012
1675248873878976949,,18.773745045,3.08417136993,0.0,,0.0,0.0,0.999845806772,0.0175602585809
1675248873978737905,,18.7657924406,3.08446884427,0.0,,0.0,0.0,0.999692500161,0.0247972805211
1675248874099150512,,18.7590711746,3.08481648077,0.0,,0.0,0.0,0.999429038797,0.0337875185368
1675248874188917301,,18.7538371603,3.08518363047,0.0,,0.0,0.0,0.999000906714,0.0446899136786
1675248874289058937,,18.7495055445,3.08558452236,0.0,,0.0,0.0,0.998461894295,0.055442273045
1675248874388740730,,18.7462528333,3.08306894726,0.0,,0.0,0.0,0.997867482641,0.0652724067879
1675248874489028311,,18.7440866974,3.08336020656,0.0,,0.0,0.0,0.996987824693,0.0775582195063
1675248874578892590,,18.7432600914,3.08348627074,0.0,,0.0,0.0,0.997088695489,0.0762504644439
1675248874678794105,,18.7436216133,3.08343267315,0.0,,0.0,0.0,0.997611655377,0.0690723175737
1675248874799108069,,18.7439783819,3.08338322326,0.0,,0.0,0.0,0.998023790172,0.0628372043469
1675248874899330469,,18.7439773921,3.08338229315,0.0,,0.0,0.0,0.998656745704,0.0518141318602
1675248874989301808,,18.7439953252,3.08338092749,0.0,,0.0,0.0,0.999289896996,0.0376789299419
1675248875089025727,,18.7439590183,3.08338421678,0.0,,0.0,0.0,0.999792900431,0.0203508291501
1675248875189942705,,18.7441291422,3.08337776181,0.0,,0.0,0.0,0.999986883816,0.00512173755239
1675248875278950298,,18.7439928453,3.08337863616,0.0,,0.0,0.0,0.99999914553,0.00130726410329
1675248875378983880,,18.7438195965,3.08337954044,0.0,,0.0,0.0,0.9999966044,0.00260599083031
1675248875478993928,,18.7437564607,3.08337983324,0.0,,0.0,0.0,0.99999632742,0.00271019313202
1675248875599079003,,18.7437564607,3.08337983324,0.0,,0.0,0.0,0.999996702647,0.00256801378312
1675248875699543912,,18.7437564607,3.08337983324,0.0,,0.0,0.0,0.999996702647,0.00256801378312
1675248875788761134,,18.7437564607,3.08337983324,0.0,,0.0,0.0,0.999996702647,0.00256801378312
1675248875889062464,,18.7437564607,3.08337983324,0.0,,0.0,0.0,0.999996702647,0.00256801378312
1675248875988837323,,18.7437564607,3.08337983324,0.0,,0.0,0.0,0.999996702647,0.00256801378312
1675248876079120480,,18.7437564607,3.08337983324,0.0,,0.0,0.0,0.999996702647,0.00256801378312
1675248876178802622,,18.7437564607,3.08337983324,0.0,,0.0,0.0,0.999996702647,0.00256801378312
1675248876299501395,,18.7437564607,3.08337983324,0.0,,0.0,0.0,0.999996702647,0.00256801378312
1675248876398927757,,18.7437564607,3.08337983324,0.0,,0.0,0.0,0.999996702647,0.00256801378312
1675248876489122946,,18.7437564607,3.08337983324,0.0,,0.0,0.0,0.999996702647,0.00256801378312
1675248876588765791,,18.7437564607,3.08337983324,0.0,,0.0,0.0,0.999996702647,0.00256801378312
1675248876688934512,,18.7437564607,3.08337983324,0.0,,0.0,0.0,0.999996702647,0.00256801378312
1675248876779779629,,18.7437564607,3.08337983324,0.0,,0.0,0.0,0.999996702647,0.00256801378312
1675248876878917237,,18.7437564607,3.08337983324,0.0,,0.0,0.0,0.999996702647,0.00256801378312
1675248876978762176,,18.7437564607,3.08337983324,0.0,,0.0,0.0,0.999996702647,0.00256801378312
1675248877099222397,,18.7437564607,3.08337983324,0.0,,0.0,0.0,0.999996702647,0.00256801378312
1675248877189255523,,18.7437564607,3.08337983324,0.0,,0.0,0.0,0.999996702647,0.00256801378312
1675248877289207829,,18.7437564607,3.08337983324,0.0,,0.0,0.0,0.999996702647,0.00256801378312
1675248877388852410,,18.7437564607,3.08337983324,0.0,,0.0,0.0,0.999996702647,0.00256801378312
1675248877489001390,,18.7437564607,3.08337983324,0.0,,0.0,0.0,0.999996702647,0.00256801378312
1675248877579314028,,18.7437564607,3.08337983324,0.0,,0.0,0.0,0.999996702647,0.00256801378312
1675248877678770066,,18.7437564607,3.08337983324,0.0,,0.0,0.0,0.999996702647,0.00256801378312
1675248877779010447,,18.7437564607,3.08337983324,0.0,,0.0,0.0,0.999996702647,0.00256801378312
1675248877899486986,,18.7437564607,3.08337983324,0.0,,0.0,0.0,0.999996702647,0.00256801378312
1675248877988743150,,18.7437564607,3.08337983324,0.0,,0.0,0.0,0.999996702647,0.00256801378312
1675248878088768834,,18.7437564607,3.08337983324,0.0,,0.0,0.0,0.999996702647,0.00256801378312
1675248878188856635,,18.7437564607,3.08337983324,0.0,,0.0,0.0,0.999996702647,0.00256801378312
1675248878279440304,,18.7437564607,3.08337983324,0.0,,0.0,0.0,0.999996702647,0.00256801378312
1675248878379106589,,18.7437564607,3.08337983324,0.0,,0.0,0.0,0.999996702647,0.00256801378312
1675248878479230373,,18.7437564607,3.08337983324,0.0,,0.0,0.0,0.999996702647,0.00256801378312
1675248878598984306,,18.7437564607,3.08337983324,0.0,,0.0,0.0,0.999996702647,0.00256801378312
1675248878689415608,,18.7437564607,3.08337983324,0.0,,0.0,0.0,0.999996702647,0.00256801378312
1675248878788781561,,18.7437564607,3.08337983324,0.0,,0.0,0.0,0.999996702647,0.00256801378312
1675248878889119909,,18.7437564607,3.08337983324,0.0,,0.0,0.0,0.999996702647,0.00256801378312
1675248878988962250,,18.7437564607,3.08337983324,0.0,,0.0,0.0,0.999996702647,0.00256801378312
1675248879079602044,,18.7437564607,3.08337983324,0.0,,0.0,0.0,0.999996702647,0.00256801378312
1675248879178775226,,18.7437564607,3.08337983324,0.0,,0.0,0.0,0.999996702647,0.00256801378312
1675248879279466719,,18.7437564607,3.08337983324,0.0,,0.0,0.0,0.999996702647,0.00256801378312
1675248879399159560,,18.7437564607,3.08337983324,0.0,,0.0,0.0,0.999996702647,0.00256801378312
1675248879489220422,,18.7437564607,3.08337983324,0.0,,0.0,0.0,0.999996702647,0.00256801378312
1675248879588753191,,18.7437564607,3.08337983324,0.0,,0.0,0.0,0.999996702647,0.00256801378312
1675248879689207524,,18.7437564607,3.08337983324,0.0,,0.0,0.0,0.999996702647,0.00256801378312
1675248879779098989,,18.7437564607,3.08337983324,0.0,,0.0,0.0,0.999996702647,0.00256801378312
1675248879878899838,,18.7437564607,3.08337983324,0.0,,0.0,0.0,0.999996702647,0.00256801378312
1675248879978729766,,18.7437564607,3.08337983324,0.0,,0.0,0.0,0.999996702647,0.00256801378312
1675248880099139512,,18.7437564607,3.08337983324,0.0,,0.0,0.0,0.999996702647,0.00256801378312
1675248880199198481,,18.7437564607,3.08337983324,0.0,,0.0,0.0,0.999996702647,0.00256801378312
1675248880289202418,,18.7437564607,3.08337983324,0.0,,0.0,0.0,0.999996702647,0.00256801378312
1675248880388740219,,18.7437564607,3.08337983324,0.0,,0.0,0.0,0.999996702647,0.00256801378312
1675248880488888155,,18.7437564607,3.08337983324,0.0,,0.0,0.0,0.999996702647,0.00256801378312
1675248880579554149,,18.7437564607,3.08337983324,0.0,,0.0,0.0,0.999996702647,0.00256801378312
1675248880678662690,,18.7437564607,3.08337983324,0.0,,0.0,0.0,0.999996702647,0.00256801378312
1675248880778819039,,18.7437564607,3.08337983324,0.0,,0.0,0.0,0.999996702647,0.00256801378312
1675248880899582842,,18.7437564607,3.08337983324,0.0,,0.0,0.0,0.999996702647,0.00256801378312
1675248880988971730,,18.7437564607,3.08337983324,0.0,,0.0,0.0,0.999996702647,0.00256801378312
1675248881088696330,,18.7437564607,3.08337983324,0.0,,0.0,0.0,0.999996702647,0.00256801378312
