rosbagTimestamp,position,x,y,z,orientation,x,y,z,w
1675249911482254030,,7.60212681269,-0.496332739179,0.0,,0.0,0.0,0.713673524357,0.700478479778
1675249911572687761,,7.60212681269,-0.496332739179,0.0,,0.0,0.0,0.713673524357,0.700478479778
1675249911672210393,,7.60212681269,-0.496332739179,0.0,,0.0,0.0,0.713673524357,0.700478479778
1675249911772036309,,7.60212681269,-0.496332739179,0.0,,0.0,0.0,0.713673524357,0.700478479778
1675249911862271563,,7.60212681269,-0.496332739179,0.0,,0.0,0.0,0.713673524357,0.700478479778
1675249911962294925,,7.60212681269,-0.496332739179,0.0,,0.0,0.0,0.713673524357,0.700478479778
1675249912062318633,,7.60212681269,-0.496332739179,0.0,,0.0,0.0,0.713673524357,0.700478479778
1675249912182324004,,7.60212681269,-0.496332739179,0.0,,0.0,0.0,0.713673524357,0.700478479778
1675249912282340267,,7.60212681269,-0.496332739179,0.0,,0.0,0.0,0.713673524357,0.700478479778
1675249912372019855,,7.60212681269,-0.496332739179,0.0,,0.0,0.0,0.713673524357,0.700478479778
1675249912472315959,,7.60212681269,-0.496332739179,0.0,,0.0,0.0,0.713673524357,0.700478479778
1675249912572137836,,7.60212681269,-0.496332739179,0.0,,0.0,0.0,0.713673524357,0.700478479778
1675249912662574112,,7.60212681269,-0.496332739179,0.0,,0.0,0.0,0.713673524357,0.700478479778
1675249912762222678,,7.60212681269,-0.496332739179,0.0,,0.0,0.0,0.713673524357,0.700478479778
1675249912862109566,,7.60212681269,-0.496332739179,0.0,,0.0,0.0,0.713673524357,0.700478479778
1675249912982546878,,7.60212681269,-0.496332739179,0.0,,0.0,0.0,0.713673524357,0.700478479778
1675249913072498098,,7.60212681269,-0.496332739179,0.0,,0.0,0.0,0.713673524357,0.700478479778
1675249913172162691,,7.60212681269,-0.496332739179,0.0,,0.0,0.0,0.713673524357,0.700478479778
1675249913272574110,,7.60212681269,-0.496332739179,0.0,,0.0,0.0,0.713673524357,0.700478479778
1675249913372024059,,7.60212681269,-0.496332739179,0.0,,0.0,0.0,0.713673524357,0.700478479778
1675249913462529538,,7.60212681269,-0.496332739179,0.0,,0.0,0.0,0.713673524357,0.700478479778
1675249913562153980,,7.60212681269,-0.496332739179,0.0,,0.0,0.0,0.713673524357,0.700478479778
1675249913682628708,,7.60212681269,-0.496332739179,0.0,,0.0,0.0,0.713673524357,0.700478479778
1675249913782226361,,7.60212681269,-0.496332739179,0.0,,0.0,0.0,0.713673524357,0.700478479778
1675249913872324542,,7.60212681269,-0.496332739179,0.0,,0.0,0.0,0.713673524357,0.700478479778
1675249913972200678,,7.60212681269,-0.496332739179,0.0,,0.0,0.0,0.713673524357,0.700478479778
1675249914072225559,,7.60212681269,-0.496332739179,0.0,,0.0,0.0,0.713673524357,0.700478479778
1675249914162052923,,7.60212681269,-0.496332739179,0.0,,0.0,0.0,0.713673524357,0.700478479778
1675249914262258416,,7.60212681269,-0.496332739179,0.0,,0.0,0.0,0.713673524357,0.700478479778
1675249914362110217,,7.60212681269,-0.496332739179,0.0,,0.0,0.0,0.713673524357,0.700478479778
1675249914482728668,,7.60212681269,-0.496332739179,0.0,,0.0,0.0,0.713673524357,0.700478479778
1675249914582428331,,7.60212681269,-0.496332739179,0.0,,0.0,0.0,0.713673524357,0.700478479778
1675249914672340964,,7.60212681269,-0.496332739179,0.0,,0.0,0.0,0.713673524357,0.700478479778
1675249914772996661,,7.60212681269,-0.496332739179,0.0,,0.0,0.0,0.713673524357,0.700478479778
1675249914872274468,,7.60212681269,-0.496332739179,0.0,,0.0,0.0,0.713673524357,0.700478479778
1675249914962318341,,7.60212681269,-0.496332739179,0.0,,0.0,0.0,0.713673524357,0.700478479778
1675249915062193978,,7.60212681269,-0.496332739179,0.0,,0.0,0.0,0.713673524357,0.700478479778
1675249915182209220,,7.60212681269,-0.496332739179,0.0,,0.0,0.0,0.713673524357,0.700478479778
1675249915282525087,,7.60212681269,-0.496332739179,0.0,,0.0,0.0,0.713673524357,0.700478479778
1675249915371990736,,7.60212681269,-0.496332739179,0.0,,0.0,0.0,0.713673524357,0.700478479778
1675249915472530887,,7.60212681269,-0.496332739179,0.0,,0.0,0.0,0.713673524357,0.700478479778
1675249915572203469,,7.60212681269,-0.496332739179,0.0,,0.0,0.0,0.713673524357,0.700478479778
1675249915662429981,,7.60212681269,-0.496332739179,0.0,,0.0,0.0,0.713673524357,0.700478479778
1675249915762185067,,7.60212681269,-0.496332739179,0.0,,0.0,0.0,0.713673524357,0.700478479778
1675249915862272272,,7.60212681269,-0.496332739179,0.0,,0.0,0.0,0.713673524357,0.700478479778
1675249915982737449,,7.60212681269,-0.496332739179,0.0,,0.0,0.0,0.713673524357,0.700478479778
1675249916082424010,,7.60212681269,-0.496332739179,0.0,,0.0,0.0,0.713673524357,0.700478479778
1675249916172052789,,7.60212681269,-0.496332739179,0.0,,0.0,0.0,0.713673524357,0.700478479778
1675249916272275229,,7.60212681269,-0.496332739179,0.0,,0.0,0.0,0.713673524357,0.700478479778
1675249916372245516,,7.60212681269,-0.496332739179,0.0,,0.0,0.0,0.713673524357,0.700478479778
1675249916462244486,,7.60212681269,-0.496332739179,0.0,,0.0,0.0,0.713673524357,0.700478479778
1675249916562266876,,7.60212681269,-0.496332739179,0.0,,0.0,0.0,0.713673524357,0.700478479778
1675249916662402488,,7.60212681269,-0.496332739179,0.0,,0.0,0.0,0.713673524357,0.700478479778
1675249916782553529,,7.60212681269,-0.496332739179,0.0,,0.0,0.0,0.713673524357,0.700478479778
1675249916872503666,,7.60212681269,-0.496332739179,0.0,,0.0,0.0,0.713673524357,0.700478479778
1675249916972350852,,7.60212681269,-0.496332739179,0.0,,0.0,0.0,0.713673524357,0.700478479778
1675249917072341969,,7.60212681269,-0.496332739179,0.0,,0.0,0.0,0.713673524357,0.700478479778
1675249917162097027,,7.60212681269,-0.496332739179,0.0,,0.0,0.0,0.713673524357,0.700478479778
1675249917262182562,,7.60212681269,-0.496332739179,0.0,,0.0,0.0,0.713673524357,0.700478479778
1675249917362278983,,7.60212681269,-0.496332739179,0.0,,0.0,0.0,0.713673524357,0.700478479778
1675249917482557139,,7.60212681269,-0.496332739179,0.0,,0.0,0.0,0.713673524357,0.700478479778
1675249917582258532,,7.60212681269,-0.496332739179,0.0,,0.0,0.0,0.713673524357,0.700478479778
1675249917672470234,,7.60212681269,-0.496332739179,0.0,,0.0,0.0,0.713673524357,0.700478479778
1675249917772314740,,7.60212681269,-0.496332739179,0.0,,0.0,0.0,0.713673524357,0.700478479778
1675249917872349316,,7.60212681269,-0.496332739179,0.0,,0.0,0.0,0.713673524357,0.700478479778
1675249917962466761,,7.60212681269,-0.496332739179,0.0,,0.0,0.0,0.713673524357,0.700478479778
1675249918062147924,,7.60212681269,-0.496332739179,0.0,,0.0,0.0,0.713673524357,0.700478479778
1675249918162235357,,7.60212681269,-0.496332739179,0.0,,0.0,0.0,0.713673524357,0.700478479778
1675249918282516952,,7.60212681269,-0.496332739179,0.0,,0.0,0.0,0.713673524357,0.700478479778
1675249918372057362,,7.60212681269,-0.496332739179,0.0,,0.0,0.0,0.713673524357,0.700478479778
1675249918472356786,,7.60212681269,-0.496332739179,0.0,,0.0,0.0,0.713673524357,0.700478479778
1675249918572213764,,7.60212681269,-0.496332739179,0.0,,0.0,0.0,0.713673524357,0.700478479778
1675249918662452805,,7.60212681269,-0.496332739179,0.0,,0.0,0.0,0.713673524357,0.700478479778
1675249918762052389,,7.60212681269,-0.496332739179,0.0,,0.0,0.0,0.713673524357,0.700478479778
1675249918862193565,,7.60212681269,-0.496332739179,0.0,,0.0,0.0,0.713673524357,0.700478479778
1675249918982522083,,7.60212681269,-0.496332739179,0.0,,0.0,0.0,0.713673524357,0.700478479778
1675249919082299751,,7.60212681269,-0.496332739179,0.0,,0.0,0.0,0.713673524357,0.700478479778
1675249919172182726,,7.60212681269,-0.496332739179,0.0,,0.0,0.0,0.713673524357,0.700478479778
1675249919272256853,,7.60212681269,-0.496332739179,0.0,,0.0,0.0,0.713673524357,0.700478479778
1675249919372165866,,7.60212681269,-0.496332739179,0.0,,0.0,0.0,0.713673524357,0.700478479778
1675249919462133562,,7.60212681269,-0.496332739179,0.0,,0.0,0.0,0.713673524357,0.700478479778
1675249919562246826,,7.60212681269,-0.496332739179,0.0,,0.0,0.0,0.713673524357,0.700478479778
1675249919661914665,,7.60212681269,-0.496332739179,0.0,,0.0,0.0,0.713673524357,0.700478479778
1675249919782517786,,7.60212681269,-0.496332739179,0.0,,0.0,0.0,0.713673524357,0.700478479778
1675249919872602021,,7.60212681269,-0.496332739179,0.0,,0.0,0.0,0.713673524357,0.700478479778
1675249919972452909,,7.60212681269,-0.496332739179,0.0,,0.0,0.0,0.713673524357,0.700478479778
1675249920072320076,,7.60212681269,-0.496332739179,0.0,,0.0,0.0,0.713673524357,0.700478479778
1675249920162148217,,7.60212681269,-0.496332739179,0.0,,0.0,0.0,0.713673524357,0.700478479778
1675249920262364830,,7.60212681269,-0.496332739179,0.0,,0.0,0.0,0.713673524357,0.700478479778
1675249920362047859,,7.60212681269,-0.496332739179,0.0,,0.0,0.0,0.713673524357,0.700478479778
1675249920482451336,,7.60212681269,-0.496332739179,0.0,,0.0,0.0,0.713673524357,0.700478479778
1675249920582231936,,7.60212681269,-0.496332739179,0.0,,0.0,0.0,0.713673524357,0.700478479778
1675249920672230542,,7.60212681269,-0.496332739179,0.0,,0.0,0.0,0.713673524357,0.700478479778
1675249920772220156,,7.60212681269,-0.496332739179,0.0,,0.0,0.0,0.713673524357,0.700478479778
1675249920872436970,,7.60212681269,-0.496332739179,0.0,,0.0,0.0,0.713673524357,0.700478479778
1675249920962279479,,7.60212681269,-0.496332739179,0.0,,0.0,0.0,0.713673524357,0.700478479778
1675249921062423896,,7.60212681269,-0.496332739179,0.0,,0.0,0.0,0.713673524357,0.700478479778
1675249921162141300,,7.60212681269,-0.496332739179,0.0,,0.0,0.0,0.713673524357,0.700478479778
1675249921282420982,,7.60212681269,-0.496332739179,0.0,,0.0,0.0,0.713673524357,0.700478479778
1675249921371991396,,7.60212681269,-0.496332739179,0.0,,0.0,0.0,0.713673524357,0.700478479778
1675249921472179226,,7.60212681269,-0.496332739179,0.0,,0.0,0.0,0.713673524357,0.700478479778
1675249921572420849,,7.60212681269,-0.496332739179,0.0,,0.0,0.0,0.713673524357,0.700478479778
1675249921672772359,,7.60212681269,-0.496332739179,0.0,,0.0,0.0,0.713673524357,0.700478479778
1675249921762316975,,7.60212681269,-0.496332739179,0.0,,0.0,0.0,0.713673524357,0.700478479778
1675249921862422247,,7.60212681269,-0.496332739179,0.0,,0.0,0.0,0.713673524357,0.700478479778
1675249921982505903,,7.60212681269,-0.496332739179,0.0,,0.0,0.0,0.713673524357,0.700478479778
1675249922082657661,,7.60212681269,-0.496332739179,0.0,,0.0,0.0,0.713673524357,0.700478479778
1675249922172130619,,7.60212681269,-0.496332739179,0.0,,0.0,0.0,0.713673524357,0.700478479778
1675249922272289532,,7.60212681269,-0.496332739179,0.0,,0.0,0.0,0.713673524357,0.700478479778
1675249922372193916,,7.60212681269,-0.496332739179,0.0,,0.0,0.0,0.713673524357,0.700478479778
1675249922462227425,,7.60212681269,-0.496332739179,0.0,,0.0,0.0,0.713673524357,0.700478479778
1675249922562284440,,7.60212681269,-0.496332739179,0.0,,0.0,0.0,0.713673524357,0.700478479778
1675249922662105703,,7.60212681269,-0.496332739179,0.0,,0.0,0.0,0.713673524357,0.700478479778
1675249922782209731,,7.60212681269,-0.496332739179,0.0,,0.0,0.0,0.713673524357,0.700478479778
1675249922872711245,,7.60212681269,-0.496332739179,0.0,,0.0,0.0,0.713673524357,0.700478479778
1675249922972044262,,7.60212681269,-0.496332739179,0.0,,0.0,0.0,0.713673524357,0.700478479778
1675249923072392890,,7.60212681269,-0.496332739179,0.0,,0.0,0.0,0.713673524357,0.700478479778
1675249923172159270,,7.60212681269,-0.496332739179,0.0,,0.0,0.0,0.713673524357,0.700478479778
1675249923262315117,,7.60212681269,-0.496332739179,0.0,,0.0,0.0,0.713673524357,0.700478479778
1675249923361981564,,7.60212681269,-0.496332739179,0.0,,0.0,0.0,0.713673524357,0.700478479778
1675249923482668694,,7.60212681269,-0.496332739179,0.0,,0.0,0.0,0.713673524357,0.700478479778
1675249923582547147,,7.60212681269,-0.496332739179,0.0,,0.0,0.0,0.713673524357,0.700478479778
1675249923673210362,,7.60212681269,-0.496332739179,0.0,,0.0,0.0,0.713673524357,0.700478479778
1675249923772403922,,7.60212681269,-0.496332739179,0.0,,0.0,0.0,0.713673524357,0.700478479778
1675249923872346875,,7.60212681269,-0.496332739179,0.0,,0.0,0.0,0.713673524357,0.700478479778
1675249923962505091,,7.60212681269,-0.496332739179,0.0,,0.0,0.0,0.713673524357,0.700478479778
1675249924062245290,,7.60212681269,-0.496332739179,0.0,,0.0,0.0,0.713673524357,0.700478479778
1675249924162218518,,7.60212681269,-0.496332739179,0.0,,0.0,0.0,0.713673524357,0.700478479778
1675249924282640089,,7.60212681269,-0.496332739179,0.0,,0.0,0.0,0.713673524357,0.700478479778
1675249924382312585,,7.60212681269,-0.496332739179,0.0,,0.0,0.0,0.713673524357,0.700478479778
1675249924472392963,,7.60212681269,-0.496332739179,0.0,,0.0,0.0,0.713673524357,0.700478479778
1675249924572199080,,7.60212681269,-0.496332739179,0.0,,0.0,0.0,0.713673524357,0.700478479778
1675249924672202993,,7.60212681269,-0.496332739179,0.0,,0.0,0.0,0.713673524357,0.700478479778
1675249924762193577,,7.60212681269,-0.496332739179,0.0,,0.0,0.0,0.713673524357,0.700478479778
1675249924862104432,,7.60212681269,-0.496332739179,0.0,,0.0,0.0,0.713673524357,0.700478479778
1675249924982387347,,7.60212681269,-0.496332739179,0.0,,0.0,0.0,0.713673524357,0.700478479778
1675249925082609346,,7.60212681269,-0.496332739179,0.0,,0.0,0.0,0.713673524357,0.700478479778
1675249925172135361,,7.60212681269,-0.496332739179,0.0,,0.0,0.0,0.713673524357,0.700478479778
1675249925272268695,,7.60212681269,-0.496332739179,0.0,,0.0,0.0,0.713673524357,0.700478479778
1675249925372092959,,7.60212681269,-0.496332739179,0.0,,0.0,0.0,0.713673524357,0.700478479778
1675249925462448717,,7.60212681269,-0.496332739179,0.0,,0.0,0.0,0.713673524357,0.700478479778
1675249925562123836,,7.60212681269,-0.496332739179,0.0,,0.0,0.0,0.713673524357,0.700478479778
1675249925662249298,,7.60212681269,-0.496332739179,0.0,,0.0,0.0,0.713673524357,0.700478479778
1675249925782502203,,7.60212681269,-0.496332739179,0.0,,0.0,0.0,0.713673524357,0.700478479778
1675249925882087909,,7.60212681269,-0.496332739179,0.0,,0.0,0.0,0.713673524357,0.700478479778
1675249925972282884,,7.60212681269,-0.496332739179,0.0,,0.0,0.0,0.713673524357,0.700478479778
1675249926072194423,,7.60212681269,-0.496332739179,0.0,,0.0,0.0,0.713673524357,0.700478479778
1675249926161876492,,7.60212681269,-0.496332739179,0.0,,0.0,0.0,0.713673524357,0.700478479778
1675249926262211599,,7.60212681269,-0.496332739179,0.0,,0.0,0.0,0.713673524357,0.700478479778
1675249926361920686,,7.60212681269,-0.496332739179,0.0,,0.0,0.0,0.713673524357,0.700478479778
1675249926462234022,,7.60212681269,-0.496332739179,0.0,,0.0,0.0,0.713673524357,0.700478479778
1675249926582490327,,7.60212681269,-0.496332739179,0.0,,0.0,0.0,0.713673524357,0.700478479778
1675249926672643624,,7.60212681269,-0.496332739179,0.0,,0.0,0.0,0.713673524357,0.700478479778
1675249926772395058,,7.60212681269,-0.496332739179,0.0,,0.0,0.0,0.713673524357,0.700478479778
1675249926872206425,,7.60212681269,-0.496332739179,0.0,,0.0,0.0,0.713673524357,0.700478479778
1675249926962481489,,7.60212681269,-0.496332739179,0.0,,0.0,0.0,0.713673524357,0.700478479778
1675249927062149047,,7.60212681269,-0.496332739179,0.0,,0.0,0.0,0.713673524357,0.700478479778
1675249927162014834,,7.60212681269,-0.496332739179,0.0,,0.0,0.0,0.713673524357,0.700478479778
1675249927282594596,,7.60212681269,-0.496332739179,0.0,,0.0,0.0,0.713673524357,0.700478479778
1675249927382299192,,7.60212681269,-0.496332739179,0.0,,0.0,0.0,0.713673524357,0.700478479778
1675249927472487062,,7.60212681269,-0.496332739179,0.0,,0.0,0.0,0.713673524357,0.700478479778
1675249927572185475,,7.60212681269,-0.496332739179,0.0,,0.0,0.0,0.713673524357,0.700478479778
1675249927671993400,,7.60212681269,-0.496332739179,0.0,,0.0,0.0,0.713673524357,0.700478479778
1675249927762241860,,7.60212681269,-0.496332739179,0.0,,0.0,0.0,0.713673524357,0.700478479778
1675249927861944131,,7.60212681269,-0.496332739179,0.0,,0.0,0.0,0.713673524357,0.700478479778
1675249927961886548,,7.60212681269,-0.496332739179,0.0,,0.0,0.0,0.713673524357,0.700478479778
1675249928082257617,,7.60212681269,-0.496332739179,0.0,,0.0,0.0,0.713673524357,0.700478479778
1675249928172070889,,7.60212681269,-0.496332739179,0.0,,0.0,0.0,0.713673524357,0.700478479778
1675249928271975036,,7.60212681269,-0.496332739179,0.0,,0.0,0.0,0.713673524357,0.700478479778
1675249928372000578,,7.60212681269,-0.496332739179,0.0,,0.0,0.0,0.713673524357,0.700478479778
1675249928461871912,,7.60212681269,-0.496332739179,0.0,,0.0,0.0,0.713673524357,0.700478479778
1675249928561847504,,7.60212681269,-0.496332739179,0.0,,0.0,0.0,0.713673524357,0.700478479778
1675249928661923536,,7.60212681269,-0.496332739179,0.0,,0.0,0.0,0.713673524357,0.700478479778
1675249928782169847,,7.60212681269,-0.496332739179,0.0,,0.0,0.0,0.713673524357,0.700478479778
1675249928882109209,,7.60212681269,-0.496332739179,0.0,,0.0,0.0,0.713673524357,0.700478479778
1675249928971986887,,7.60212681269,-0.496332739179,0.0,,0.0,0.0,0.713673524357,0.700478479778
1675249929072170664,,7.60212681269,-0.496332739179,0.0,,0.0,0.0,0.713673524357,0.700478479778
1675249929172049151,,7.60212681269,-0.496332739179,0.0,,0.0,0.0,0.713673524357,0.700478479778
1675249929261904973,,7.60212681269,-0.496332739179,0.0,,0.0,0.0,0.713673524357,0.700478479778
1675249929361999819,,7.60212681269,-0.496332739179,0.0,,0.0,0.0,0.713673524357,0.700478479778
1675249929461888084,,7.60212681269,-0.496332739179,0.0,,0.0,0.0,0.713673524357,0.700478479778
1675249929582082668,,7.60212681269,-0.496332739179,0.0,,0.0,0.0,0.713673524357,0.700478479778
1675249929671939893,,7.60212681269,-0.496332739179,0.0,,0.0,0.0,0.713673524357,0.700478479778
1675249929772028211,,7.60212681269,-0.496332739179,0.0,,0.0,0.0,0.713673524357,0.700478479778
1675249929872033712,,7.60212681269,-0.496332739179,0.0,,0.0,0.0,0.713673524357,0.700478479778
1675249929962228365,,7.60212681269,-0.496332739179,0.0,,0.0,0.0,0.713673524357,0.700478479778
1675249930061960847,,7.60212681269,-0.496332739179,0.0,,0.0,0.0,0.713673524357,0.700478479778
1675249930161926778,,7.60212539137,-0.496256206205,0.0,,0.0,0.0,0.71366526083,0.700486898867
1675249930282212661,,7.60211663651,-0.495786723904,0.0,,0.0,0.0,0.713608965278,0.700544248905
1675249930382049203,,7.60206941599,-0.493252252176,0.0,,0.0,0.0,0.71388778525,0.700260116007
1675249930471903720,,7.60202050179,-0.490853342471,0.0,,0.0,0.0,0.71559992256,0.698510379903
1675249930572056731,,7.60194588547,-0.487982167879,0.0,,0.0,0.0,0.717932241812,0.696112990948
1675249930672040666,,7.60179317782,-0.483054733136,0.0,,0.0,0.0,0.719006069278,0.695003793041
1675249930761875574,,7.60156006997,-0.476000116892,0.0,,0.0,0.0,0.717775792188,0.696274308121
1675249930861866890,,7.6012885231,-0.466650296212,0.0,,0.0,0.0,0.715329705748,0.698787100678
1675249930962032916,,7.60102112672,-0.45482114211,0.0,,0.0,0.0,0.713345062242,0.700812972322
1675249931082112449,,7.60079388393,-0.441807044983,0.0,,0.0,0.0,0.712307345347,0.701867683944
1675249931172002536,,7.60059352721,-0.428015755749,0.0,,0.0,0.0,0.711637559584,0.702546784058
1675249931271935017,,7.60040844991,-0.413311994411,0.0,,0.0,0.0,0.71108266957,0.703108410586
1675249931372818446,,7.60024117736,-0.397942478592,0.0,,0.0,0.0,0.710247489685,0.703952060439
1675249931471976893,,7.60009408816,-0.380886823166,0.0,,0.0,0.0,0.709836574472,0.704366408584
1675249931561952398,,7.5999614844,-0.362272669684,0.0,,0.0,0.0,0.708766809223,0.70544284683
1675249931662030404,,7.59987032553,-0.341578518267,0.0,,0.0,0.0,0.708002859364,0.706209566016
1675249931761959143,,7.59982637109,-0.319519887579,0.0,,0.0,0.0,0.707028913958,0.707184639842
1675249931882064248,,7.59984339839,-0.29686747587,0.0,,0.0,0.0,0.705967200409,0.708244528356
1675249931971971166,,7.59992375746,-0.274136205968,0.0,,0.0,0.0,0.705167618109,0.709040640846
1675249932071938018,,7.58627841643,-0.247793799004,0.0,,0.0,0.0,0.705952426642,0.708259254312
1675249932171925246,,7.58635996717,-0.22524932567,0.0,,0.0,0.0,0.70506349137,0.709144183602
1675249932261954646,,7.58648719683,-0.200013702089,0.0,,0.0,0.0,0.705407179852,0.708802307144
1675249932362432604,,7.58662825414,-0.171551776116,0.0,,0.0,0.0,0.705496404866,0.708713498335
1675249932462079029,,7.58677589284,-0.139724887538,0.0,,0.0,0.0,0.705575439813,0.708634813379
1675249932582049493,,7.58692272649,-0.10551182058,0.0,,0.0,0.0,0.705729989784,0.708480897074
1675249932672001890,,7.58706460992,-0.0707423616229,0.0,,0.0,0.0,0.705902810138,0.708308705748
1675249932771969098,,7.57026283991,-0.0422076763047,0.0,,0.0,0.0,0.705034046203,0.709173458115
1675249932871989413,,7.5704469509,-0.00713323314048,0.0,,0.0,0.0,0.706337265302,0.707875460547
1675249932971995268,,7.57049311937,0.0278744573283,0.0,,0.0,0.0,0.708036761156,0.706175576505
1675249933062114321,,7.57036436695,0.0620081386773,0.0,,0.0,0.0,0.710367147361,0.703831312141
1675249933162199387,,7.57010301711,0.0902968630454,0.0,,0.0,0.0,0.711855959616,0.702325489185
1675249933261995318,,7.56991584704,0.10465876628,0.0,,0.0,0.0,0.712193556569,0.701983146508
1675249933382279761,,7.56989220359,0.106319815878,0.0,,0.0,0.0,0.712371121482,0.701802953312
1675249933472034750,,7.5699070798,0.105320558082,0.0,,0.0,0.0,0.712840600943,0.701326085104
1675249933571897337,,7.56991778753,0.104640546063,0.0,,0.0,0.0,0.711910004706,0.702270706494
1675249933672147850,,7.56991905409,0.104550058757,0.0,,0.0,0.0,0.713138490165,0.701023176396
1675249933761946485,,7.56991337657,0.104887526781,0.0,,0.0,0.0,0.713435396333,0.700721011002
1675249933861964812,,7.56990857175,0.105152576348,0.0,,0.0,0.0,0.713806660546,0.700342809887
1675249933962068894,,7.56990839268,0.105162093934,0.0,,0.0,0.0,0.713735878809,0.700414945086
1675249934082079845,,7.56990839268,0.105162093934,0.0,,0.0,0.0,0.713766567039,0.700383671838
1675249934173785170,,7.56990839268,0.105162093934,0.0,,0.0,0.0,0.713766567039,0.700383671838
1675249934272016440,,7.56990839268,0.105162093934,0.0,,0.0,0.0,0.713766567039,0.700383671838
1675249934372827143,,7.56990872762,0.105144312828,0.0,,0.0,0.0,0.713738663683,0.700412107237
1675249934472054464,,7.56990992602,0.105080295996,0.0,,0.0,0.0,0.713638194826,0.700514473002
1675249934561990067,,7.56990992602,0.105080295996,0.0,,0.0,0.0,0.713638194826,0.700514473002
1675249934661979538,,7.56990992602,0.105080295996,0.0,,0.0,0.0,0.713638194826,0.700514473002
1675249934761924415,,7.56990992602,0.105080295996,0.0,,0.0,0.0,0.713638194826,0.700514473002
1675249934882210016,,7.56990992602,0.105080295996,0.0,,0.0,0.0,0.713638194826,0.700514473002
1675249934971991020,,7.56990992602,0.105080295996,0.0,,0.0,0.0,0.713638194826,0.700514473002
1675249935072012359,,7.56990992602,0.105080295996,0.0,,0.0,0.0,0.713638194826,0.700514473002
1675249935171964743,,7.56990344446,0.105424226916,0.0,,0.0,0.0,0.713902775763,0.700244833439
1675249935262135335,,7.56987017382,0.107006739151,0.0,,0.0,0.0,0.716212237147,0.697882534071
1675249935361950347,,7.56977691739,0.11015129152,0.0,,0.0,0.0,0.721753731652,0.692149948238
1675249935461983835,,7.56957579118,0.114565071848,0.0,,0.0,0.0,0.728066147253,0.685506881968
1675249935582070103,,7.5692246125,0.12015706251,0.0,,0.0,0.0,0.734429929122,0.678684521121
1675249935682245453,,7.60161660484,0.138149191293,0.0,,0.0,0.0,0.746666520802,0.665198546837
1675249935772028124,,7.6005924853,0.146642660812,0.0,,0.0,0.0,0.75504538396,0.655672531193
1675249935872011538,,7.59935013775,0.155239879297,0.0,,0.0,0.0,0.761874578772,0.647724575897
1675249935971920429,,7.59801333245,0.163311267428,0.0,,0.0,0.0,0.767360677544,0.641215712969
1675249936062322794,,7.59652833287,0.171440084312,0.0,,0.0,0.0,0.772339267247,0.63521024572
1675249936163873717,,7.59491871189,0.179537472087,0.0,,0.0,0.0,0.777389034114,0.629020102731
1675249936262033801,,7.59329415173,0.187060801672,0.0,,0.0,0.0,0.782512676277,0.622634653281
1675249936383462104,,7.59148723531,0.194805596261,0.0,,0.0,0.0,0.787677321259,0.616088011224
1675249936482279985,,7.58957507547,0.202440647965,0.0,,0.0,0.0,0.792530207348,0.609832657736
1675249936571942883,,7.58754770881,0.210030366184,0.0,,0.0,0.0,0.797194809615,0.603722150929
1675249936672069335,,7.58542470971,0.217495948169,0.0,,0.0,0.0,0.802181508374,0.597080252246
1675249936762115439,,7.57668266996,0.226025979408,0.0,,0.0,0.0,0.806687199859,0.590978647316
1675249936862062106,,7.57432249853,0.233420484911,0.0,,0.0,0.0,0.811378971916,0.584520456385
1675249936961880298,,7.57192228083,0.240558997961,0.0,,0.0,0.0,0.81585434229,0.578257461834
1675249937082131370,,7.56947401581,0.247472377032,0.0,,0.0,0.0,0.820488046101,0.571663682776
1675249937182731440,,7.56673782768,0.254832977075,0.0,,0.0,0.0,0.824814739626,0.565403082143
1675249937272158221,,7.56386097902,0.26222317948,0.0,,0.0,0.0,0.829371136515,0.558698056123
1675249937372815518,,7.56096603065,0.269321518176,0.0,,0.0,0.0,0.833423148341,0.552635373288
1675249937472177989,,7.5578917699,0.276536364714,0.0,,0.0,0.0,0.838092494462,0.545528157593
1675249937561854806,,7.55433806098,0.284509346808,0.0,,0.0,0.0,0.842727543672,0.538340307924
1675249937662025079,,7.55011282819,0.29354280281,0.0,,0.0,0.0,0.84826306205,0.529575091524
1675249937761917843,,7.54530539652,0.303284749322,0.0,,0.0,0.0,0.854358027255,0.519684867265
1675249937882086705,,7.53515905553,0.328180529582,0.0,,0.0,0.0,0.859023980705,0.511935348041
1675249937972312416,,7.52852832302,0.340282185852,0.0,,0.0,0.0,0.866422131966,0.499312216192
1675249938072317097,,7.52062816958,0.353764779426,0.0,,0.0,0.0,0.874088477188,0.485766748602
1675249938172118317,,7.51159395678,0.368127923682,0.0,,0.0,0.0,0.882353890178,0.470586455912
1675249938261979588,,7.5012548447,0.383340434638,0.0,,0.0,0.0,0.890916221844,0.454167684513
1675249938362187452,,7.48926690903,0.399632698497,0.0,,0.0,0.0,0.899672425281,0.436565604679
1675249938461869572,,7.47579637874,0.416517719816,0.0,,0.0,0.0,0.908262300162,0.418401235782
1675249938562017175,,7.46676536418,0.449723684982,0.0,,0.0,0.0,0.91812484494,0.396291268014
1675249938682103775,,7.4491901031,0.46805804231,0.0,,0.0,0.0,0.926762274039,0.37564835607
1675249938772018112,,7.42903424395,0.487283176938,0.0,,0.0,0.0,0.935625011616,0.352995520706
1675249938872121994,,7.40646189166,0.506876998796,0.0,,0.0,0.0,0.943743645401,0.330677988026
1675249938972132593,,7.38624014323,0.53657065824,0.0,,0.0,0.0,0.951048582549,0.309041410868
1675249939062154962,,7.35780877218,0.556935002871,0.0,,0.0,0.0,0.957992341946,0.286793780917
1675249939163821645,,7.3261690405,0.577409847648,0.0,,0.0,0.0,0.964341688379,0.264660363588
1675249939261959697,,7.29414927877,0.596142282831,0.0,,0.0,0.0,0.969793640157,0.243926824093
1675249939382241720,,7.26280743683,0.612763727239,0.0,,0.0,0.0,0.974491300015,0.224425279758
1675249939482113748,,7.24089942738,0.628464503805,0.0,,0.0,0.0,0.977847114248,0.209320379219
1675249939571996691,,7.21125013122,0.641683047999,0.0,,0.0,0.0,0.980241918982,0.197802376807
1675249939671958898,,7.18205842031,0.653923199779,0.0,,0.0,0.0,0.981681161494,0.190531092391
1675249939771983403,,7.15302903646,0.665579208148,0.0,,0.0,0.0,0.982762911051,0.184870388818
1675249939861936796,,7.12431475941,0.676719645116,0.0,,0.0,0.0,0.983752252397,0.179531350754
1675249939962003472,,7.09805755492,0.686598203027,0.0,,0.0,0.0,0.984351020707,0.176218807261
1675249940061909766,,7.07559644742,0.694929827505,0.0,,0.0,0.0,0.984115546781,0.177529126018
1675249940182343624,,7.06335910575,0.711961708664,0.0,,0.0,0.0,0.983373696457,0.181593428064
1675249940272321382,,7.04061057943,0.720712269352,0.0,,0.0,0.0,0.982230017213,0.18768109464
1675249940372053577,,7.01632749177,0.730402943148,0.0,,0.0,0.0,0.981018740925,0.193912944266
1675249940471973648,,6.98965593404,0.741443173961,0.0,,0.0,0.0,0.9796315596,0.200803404939
1675249940561913767,,6.96144803074,0.753558470179,0.0,,0.0,0.0,0.978347783335,0.206967666178
1675249940662096031,,6.9332797062,0.766078288858,0.0,,0.0,0.0,0.977281252909,0.211946579858
1675249940761862200,,6.90705179792,0.778081799062,0.0,,0.0,0.0,0.975813238961,0.21860586147
1675249940882204799,,6.88476597079,0.788665465009,0.0,,0.0,0.0,0.973882474236,0.227052695153
1675249940982357889,,6.8650740084,0.79844640063,0.0,,0.0,0.0,0.971573053312,0.236739946099
1675249941071963644,,6.85000990797,0.809209770698,0.0,,0.0,0.0,0.969113651924,0.246614536582
1675249941171992316,,6.83174746064,0.819266155368,0.0,,0.0,0.0,0.965658236299,0.259815647464
1675249941271987643,,6.81395234317,0.829679743125,0.0,,0.0,0.0,0.962163123678,0.272474078464
1675249941362156134,,6.79767350499,0.839759330315,0.0,,0.0,0.0,0.958965538151,0.283522656306
1675249941462080018,,6.78241293425,0.849703184616,0.0,,0.0,0.0,0.956062742069,0.293162127886
1675249941561913263,,6.76796800754,0.859553421687,0.0,,0.0,0.0,0.952957554515,0.303103776441
1675249941682119060,,6.75433488497,0.86927204267,0.0,,0.0,0.0,0.949744033054,0.313027589324
1675249941772253291,,6.7410874575,0.879121101246,0.0,,0.0,0.0,0.946762805757,0.321931964297
1675249941871920406,,6.72820843717,0.889079071976,0.0,,0.0,0.0,0.944171412518,0.329454615667
1675249941971969907,,6.71104767861,0.905982476953,0.0,,0.0,0.0,0.94168057838,0.33650808059
1675249942061821870,,6.6985603515,0.916216945899,0.0,,0.0,0.0,0.940896222531,0.338694993213
1675249942161962886,,6.68565918441,0.926874543205,0.0,,0.0,0.0,0.941098070892,0.338133732364
1675249942261989780,,6.67128787149,0.938714371544,0.0,,0.0,0.0,0.94177988424,0.336230054637
1675249942382523370,,6.6554509728,0.951678616892,0.0,,0.0,0.0,0.941836282953,0.336072040064
1675249942482162007,,6.639128035,0.96504452974,0.0,,0.0,0.0,0.94130525834,0.337556529519
1675249942572115363,,6.6225357243,0.978738742172,0.0,,0.0,0.0,0.940318551914,0.340295490605
1675249942672113477,,6.60547312651,0.993016049747,0.0,,0.0,0.0,0.93825941403,0.345932467374
1675249942772014604,,6.58828599556,1.00778938053,0.0,,0.0,0.0,0.935054211152,0.354504756253
1675249942861843183,,6.57094968094,1.02324427265,0.0,,0.0,0.0,0.931167323138,0.364592123228
1675249942961962491,,6.55313047188,1.03985246021,0.0,,0.0,0.0,0.926212062204,0.377002938752
1675249943061990779,,6.53521198284,1.05752068843,0.0,,0.0,0.0,0.920210523347,0.391423801935
1675249943182180184,,6.51715172414,1.07650728582,0.0,,0.0,0.0,0.913212773325,0.407483043372
1675249943272008402,,6.50199064943,1.09219649662,0.0,,0.0,0.0,0.90400394239,0.427524118785
1675249943372565032,,6.48438837174,1.1139843868,0.0,,0.0,0.0,0.894093254729,0.447880845593
1675249943472065358,,6.46707628872,1.13750873309,0.0,,0.0,0.0,0.882490231798,0.470330724897
1675249943561813633,,6.45033507133,1.16299214685,0.0,,0.0,0.0,0.868785793822,0.495188089975
1675249943662017880,,6.44043861693,1.18946375125,0.0,,0.0,0.0,0.853131072038,0.521696630163
1675249943762009478,,6.42573807401,1.21880238166,0.0,,0.0,0.0,0.836356660414,0.548185677104
1675249943882035337,,6.41253527953,1.25003666634,0.0,,0.0,0.0,0.818003227751,0.575213629349
1675249943982281336,,6.40125635464,1.28259236525,0.0,,0.0,0.0,0.797903677683,0.602784970898
1675249944071923346,,6.3983738263,1.31474199088,0.0,,0.0,0.0,0.777184361657,0.629272967794
1675249944171933676,,6.39139502689,1.34928122228,0.0,,0.0,0.0,0.75514826402,0.65555403999
1675249944271942609,,6.38677865705,1.38405967452,0.0,,0.0,0.0,0.732466973492,0.680802565171
1675249944362214388,,6.38886028527,1.41358060269,0.0,,0.0,0.0,0.710703886496,0.703491283329
1675249944461899542,,6.38882098689,1.44920117523,0.0,,0.0,0.0,0.687553320924,0.726133893222
1675249944561887272,,6.39108755964,1.48539701274,0.0,,0.0,0.0,0.664543901469,0.747249224169
1675249944682097896,,6.39830336934,1.51496108555,0.0,,0.0,0.0,0.64303350987,0.765838041092
1675249944771954639,,6.40512247515,1.55224130857,0.0,,0.0,0.0,0.621938255359,0.783066284884
1675249944871939197,,6.4134895631,1.58716946334,0.0,,0.0,0.0,0.603136380928,0.797638079583
1675249944972003177,,6.42221637631,1.6175728803,0.0,,0.0,0.0,0.58929629611,0.807916997835
1675249945082285398,,6.4304743875,1.64327456411,0.0,,0.0,0.0,0.581506972617,0.813541419227
1675249945161866254,,6.43710285778,1.66077126711,0.0,,0.0,0.0,0.580348920027,0.814367933445
1675249945262053837,,6.44391354937,1.68056421436,0.0,,0.0,0.0,0.581517686911,0.813533760707
1675249945382037565,,6.45098418808,1.70122836619,0.0,,0.0,0.0,0.581677851779,0.813419250294
1675249945482038999,,6.4583319827,1.72266638041,0.0,,0.0,0.0,0.579787679726,0.814767602718
1675249945572002828,,6.46624046878,1.74534098737,0.0,,0.0,0.0,0.575887394336,0.817529026423
1675249945671979366,,6.47497215423,1.76956277629,0.0,,0.0,0.0,0.570602085645,0.821226679948
1675249945772113526,,6.48502210499,1.79635573534,0.0,,0.0,0.0,0.564735779795,0.825271772823
1675249945861997305,,6.49654346739,1.82587150281,0.0,,0.0,0.0,0.559470003614,0.828850598755
1675249945961875774,,6.50422679026,1.85995137109,0.0,,0.0,0.0,0.555405546991,0.831579628401
1675249946061964295,,6.51853322455,1.89429500147,0.0,,0.0,0.0,0.550518550923,0.834822930381
1675249946182152529,,6.53444460351,1.93125284021,0.0,,0.0,0.0,0.545484411908,0.838120967621
1675249946282152772,,6.55192361241,1.97057681726,0.0,,0.0,0.0,0.540964420303,0.841045477942
1675249946372327728,,6.57114705382,2.01262838095,0.0,,0.0,0.0,0.537147566887,0.843488287641
1675249946471978146,,6.59228130518,2.05773046226,0.0,,0.0,0.0,0.533317434393,0.845915193251
1675249946561987244,,6.61023316936,2.1060347674,0.0,,0.0,0.0,0.529051594124,0.848589659821
1675249946661923415,,6.63510316997,2.15666770424,0.0,,0.0,0.0,0.526281303393,0.850310525455
1675249946761951880,,6.6614704488,2.20944828925,0.0,,0.0,0.0,0.524014097647,0.851709589865
1675249946882237967,,6.68943094634,2.26476813138,0.0,,0.0,0.0,0.522732318142,0.852496875988
1675249946982140915,,6.71832800012,2.31643686314,0.0,,0.0,0.0,0.519236678614,0.854630488329
1675249947071906924,,6.74864534824,2.3748524066,0.0,,0.0,0.0,0.519673901403,0.854364697422
1675249947171948235,,6.77922814768,2.43395097255,0.0,,0.0,0.0,0.520473358145,0.85387790899
1675249947274511959,,6.80987189444,2.49347290957,0.0,,0.0,0.0,0.521712109297,0.853121606228
1675249947362532843,,6.84193640592,2.55505790361,0.0,,0.0,0.0,0.522850025831,0.852424689042
1675249947461928942,,6.8721560458,2.61460996269,0.0,,0.0,0.0,0.524820559722,0.851212887645
1675249947561900957,,6.90176918203,2.67365506195,0.0,,0.0,0.0,0.527034386569,0.849843959426
1675249947682235209,,6.93851488124,2.74093113587,0.0,,0.0,0.0,0.531551470248,0.84702599398
1675249947781979278,,6.96758299539,2.80131378557,0.0,,0.0,0.0,0.535184009691,0.844735506399
1675249947872014472,,6.99628663405,2.8622645247,0.0,,0.0,0.0,0.538950060277,0.842337718809
1675249947972078944,,7.02446544335,2.92356520072,0.0,,0.0,0.0,0.542957165293,0.839760392408
1675249948062164424,,7.05411441826,2.98403008676,0.0,,0.0,0.0,0.547395942309,0.83687375532
1675249948161906661,,7.08241428546,3.04909698011,0.0,,0.0,0.0,0.552055053745,0.833807662255
1675249948261928808,,7.11133781981,3.11757583569,0.0,,0.0,0.0,0.556539188962,0.830821359348
1675249948362110835,,7.14046406879,3.19134040086,0.0,,0.0,0.0,0.559558063052,0.828791152265
1675249948482093468,,7.16992500595,3.26476868474,0.0,,0.0,0.0,0.563694195603,0.825983567539
1675249948571992482,,7.19903801486,3.33944688429,0.0,,0.0,0.0,0.5680151732,0.823018081827
1675249948671952598,,7.2264420007,3.41447307771,0.0,,0.0,0.0,0.57383343918,0.818972028874
1675249948771992226,,7.2537961756,3.48988702448,0.0,,0.0,0.0,0.576240417358,0.817280234316
1675249948861915730,,7.28073646139,3.56543367001,0.0,,0.0,0.0,0.577206883138,0.816597951294
1675249948961883614,,7.3035627912,3.63516545368,0.0,,0.0,0.0,0.577447116471,0.816428090942
1675249949061936823,,7.33049187408,3.71106195682,0.0,,0.0,0.0,0.575147071089,0.818050026965
1675249949182200039,,7.35747978351,3.78358111329,0.0,,0.0,0.0,0.570357132813,0.821396823131
1675249949272273159,,7.38571147379,3.85861997915,0.0,,0.0,0.0,0.564001841379,0.825773530044
1675249949372462125,,7.41495598133,3.93287282312,0.0,,0.0,0.0,0.556341188896,0.830953958735
1675249949472000769,,7.44551650243,4.00646095489,0.0,,0.0,0.0,0.548328247798,0.836263195811
1675249949571956255,,7.48363750897,4.07253834166,0.0,,0.0,0.0,0.538918333777,0.842358017424
1675249949661919010,,7.51480757145,4.13939758482,0.0,,0.0,0.0,0.529598008581,0.84824875438
1675249949761879020,,7.54554066263,4.20176167701,0.0,,0.0,0.0,0.520182561639,0.854055093403
1675249949861839160,,7.58243135828,4.26345378279,0.0,,0.0,0.0,0.510123909641,0.860100922458
1675249949982011279,,7.6141799762,4.32098235638,0.0,,0.0,0.0,0.499999565855,0.866025654438
1675249950071973236,,7.64720049507,4.37761519412,0.0,,0.0,0.0,0.489127611305,0.872212233266
1675249950172081304,,7.68142133549,4.4331150307,0.0,,0.0,0.0,0.477530780819,0.87861502
1675249950271976941,,7.71238486518,4.48128054264,0.0,,0.0,0.0,0.467283042947,0.884107774977
1675249950362052607,,7.74744635292,4.5322761851,0.0,,0.0,0.0,0.455462199351,0.890255123525
1675249950462349684,,7.78316801586,4.58132631668,0.0,,0.0,0.0,0.443433507224,0.896307271348
1675249950561904002,,7.81986343791,4.62896581234,0.0,,0.0,0.0,0.431348051082,0.902185601097
1675249950682058665,,7.85286215585,4.67872033079,0.0,,0.0,0.0,0.419135793025,0.907923557908
1675249950782060567,,7.89283028769,4.72526172356,0.0,,0.0,0.0,0.40654354773,0.913631404779
1675249950871934325,,7.93455558144,4.77114354063,0.0,,0.0,0.0,0.394131902551,0.919053884923
1675249950972069455,,7.97693165699,4.81535360931,0.0,,0.0,0.0,0.382221255465,0.924070837042
1675249951072002508,,8.01950834901,4.85756193619,0.0,,0.0,0.0,0.370767877516,0.928725568186
1675249951161937283,,8.05878621003,4.89216294441,0.0,,0.0,0.0,0.35929657501,0.933223430474
1675249951261927117,,8.09934588493,4.92860822662,0.0,,0.0,0.0,0.34967320949,0.936871734318
1675249951361939402,,8.13881450464,4.96264252589,0.0,,0.0,0.0,0.340647965378,0.940190918741
1675249951482385081,,8.17797260791,4.9951423793,0.0,,0.0,0.0,0.332233796921,0.943197065402
1675249951571994452,,8.21804792281,5.02719895426,0.0,,0.0,0.0,0.323365682512,0.946274080472
1675249951672023303,,8.26661134578,5.06035129865,0.0,,0.0,0.0,0.311938011504,0.950102456043
1675249951772055355,,8.31189325662,5.09342748818,0.0,,0.0,0.0,0.301342058828,0.95351610557
1675249951862010268,,8.36005068249,5.12699515841,0.0,,0.0,0.0,0.290031948926,0.957016963592
1675249951961950229,,8.41040571407,5.16034218482,0.0,,0.0,0.0,0.279005561953,0.960289485728
1675249952061863583,,8.46258721218,5.19382503671,0.0,,0.0,0.0,0.268939400823,0.963157099691
1675249952182012804,,8.51297288466,5.22410881304,0.0,,0.0,0.0,0.258470846089,0.966019058674
1675249952282094955,,8.56046962252,5.25129800359,0.0,,0.0,0.0,0.248791506589,0.968557064013
1675249952372134905,,8.60547990282,5.27594213138,0.0,,0.0,0.0,0.240953514795,0.970536657581
1675249952482102441,,8.65031637873,5.29956395211,0.0,,0.0,0.0,0.23459791964,0.972092493593
1675249952572097673,,8.69809060994,5.32325151062,0.0,,0.0,0.0,0.229013362542,0.973423278835
1675249952661838145,,8.74550310689,5.34676330605,0.0,,0.0,0.0,0.222950883969,0.974829679143
1675249952761876377,,8.79410518136,5.37012020178,0.0,,0.0,0.0,0.216859767189,0.976202766527
1675249952861982430,,8.84284267437,5.39280558263,0.0,,0.0,0.0,0.211180636594,0.977447051624
1675249952982146019,,8.88906970017,5.41244311274,0.0,,0.0,0.0,0.204827334765,0.978798121644
1675249953071966103,,8.93716262838,5.43339364121,0.0,,0.0,0.0,0.199371918106,0.979923894122
1675249953172435420,,8.98823981394,5.4549871961,0.0,,0.0,0.0,0.193924450734,0.98101646643
1675249953271926544,,9.04287301838,5.47735667334,0.0,,0.0,0.0,0.188585958444,0.982056686896
1675249953362259607,,9.1024808211,5.49676834478,0.0,,0.0,0.0,0.182064073195,0.983286668908
1675249953461944767,,9.16378056667,5.52016212195,0.0,,0.0,0.0,0.176885469826,0.984231441565
1675249953561950234,,9.22856941907,5.54410959955,0.0,,0.0,0.0,0.171870235339,0.985119597919
1675249953682297364,,9.29703582002,5.56865551062,0.0,,0.0,0.0,0.167439561475,0.9858823425
1675249953781967580,,9.37062973472,5.58260190309,0.0,,0.0,0.0,0.161342974747,0.986898396239
1675249953872000195,,9.44454449625,5.60738523267,0.0,,0.0,0.0,0.158634376841,0.987337396478
1675249953972026664,,9.51973671781,5.63215723912,0.0,,0.0,0.0,0.157004911569,0.98759782186
1675249954072082182,,9.59887054355,5.65239353652,0.0,,0.0,0.0,0.156496135294,0.987678571013
1675249954161941576,,9.67521750111,5.67727368112,0.0,,0.0,0.0,0.15803870849,0.987432917528
1675249954261924447,,9.75536148589,5.70451619886,0.0,,0.0,0.0,0.165631654499,0.986187687526
1675249954362452932,,9.83078110811,5.73074375426,0.0,,0.0,0.0,0.171647148576,0.985158493028
1675249954482077236,,9.90647854937,5.7581643376,0.0,,0.0,0.0,0.178991028505,0.983850706009
1675249954572286326,,9.98057191192,5.78689928311,0.0,,0.0,0.0,0.185258468842,0.982689828849
1675249954671943502,,10.0547156741,5.81611030066,0.0,,0.0,0.0,0.19316738856,0.981165816769
1675249954771942614,,10.1282436358,5.84643468079,0.0,,0.0,0.0,0.201161962432,0.979557994644
1675249954871986461,,10.198248941,5.87256909408,0.0,,0.0,0.0,0.20899948963,0.97791574961
1675249954961897724,,10.2641454528,5.90217863239,0.0,,0.0,0.0,0.214429055377,0.976739566215
1675249955062056823,,10.3216970177,5.92873968459,0.0,,0.0,0.0,0.217063750545,0.976157430028
1675249955182390279,,10.3712894681,5.94705666555,0.0,,0.0,0.0,0.218882198984,0.975751291553
1675249955282260544,,10.4125318192,5.96655789107,0.0,,0.0,0.0,0.219945868759,0.975512078252
1675249955371999572,,10.4493164911,5.9840838311,0.0,,0.0,0.0,0.221838804411,0.975083352774
1675249955471972098,,10.4842800872,6.00090038597,0.0,,0.0,0.0,0.224211352591,0.974540542702
1675249955572016513,,10.5186324094,6.01762269562,0.0,,0.0,0.0,0.226837651571,0.973932584849
1675249955661936550,,10.5561265245,6.02859715617,0.0,,0.0,0.0,0.227988470706,0.973663831733
1675249955761848061,,10.5901522341,6.04549151688,0.0,,0.0,0.0,0.230681127997,0.973029402015
1675249955862038455,,10.6241629026,6.06261696405,0.0,,0.0,0.0,0.23354907092,0.972345016685
1675249955981987635,,10.6585745528,6.08018982453,0.0,,0.0,0.0,0.236275680795,0.971686061784
1675249956072133906,,10.6947291978,6.09893255633,0.0,,0.0,0.0,0.239226654128,0.970963752132
1675249956172011969,,10.7331535921,6.1191390483,0.0,,0.0,0.0,0.242033825923,0.970267812054
1675249956272023906,,10.7819354968,6.14022260162,0.0,,0.0,0.0,0.246738167152,0.969082182723
1675249956372386406,,10.8248752499,6.16362643808,0.0,,0.0,0.0,0.248281537967,0.968687915639
1675249956461995590,,10.87023381,6.18853963983,0.0,,0.0,0.0,0.249694635173,0.968324630052
1675249956561996192,,10.9177463431,6.21480807661,0.0,,0.0,0.0,0.250931613526,0.968004816792
1675249956682209917,,10.9676389749,6.24252927863,0.0,,0.0,0.0,0.251513946951,0.96785367411
1675249956782032411,,11.0207864374,6.27017667493,0.0,,0.0,0.0,0.251794118784,0.967780823196
1675249956871939408,,11.0756513221,6.3007860726,0.0,,0.0,0.0,0.251603137936,0.967830491864
1675249956972006072,,11.1335333056,6.33305524887,0.0,,0.0,0.0,0.251080935445,0.967966096439
1675249957072081867,,11.1958455675,6.36619196466,0.0,,0.0,0.0,0.251893490838,0.967754963446
1675249957161897396,,11.2592193867,6.40152476931,0.0,,0.0,0.0,0.250526115864,0.968109841532
1675249957261938383,,11.3251973034,6.43800639593,0.0,,0.0,0.0,0.247622582632,0.968856571723
1675249957362616997,,11.3932811788,6.47514883414,0.0,,0.0,0.0,0.24435658028,0.969685444706
1675249957482015731,,11.463050163,6.51353896625,0.0,,0.0,0.0,0.241617098102,0.970371669982
1675249957582176412,,11.5345627995,6.55138512742,0.0,,0.0,0.0,0.237602127736,0.97136256305
1675249957672000130,,11.6065037294,6.58874743763,0.0,,0.0,0.0,0.234246171317,0.972177314703
1675249957771980884,,11.6807769183,6.62406258552,0.0,,0.0,0.0,0.229524185465,0.973302958121
1675249957862133083,,11.7527146877,6.65980523162,0.0,,0.0,0.0,0.224344908023,0.97450980613
1675249957961850987,,11.8249908568,6.69476810271,0.0,,0.0,0.0,0.218296172289,0.975882565253
1675249958061874959,,11.8981630903,6.7299088069,0.0,,0.0,0.0,0.209751778125,0.977754668398
1675249958161901033,,11.9710299359,6.76248950809,0.0,,0.0,0.0,0.203014113614,0.979175811422
1675249958282076542,,12.044464989,6.79414511682,0.0,,0.0,0.0,0.196685823901,0.980466565813
1675249958382476779,,12.1215857738,6.82893073865,0.0,,0.0,0.0,0.190272510884,0.981731313345
1675249958471913436,,12.1956356817,6.85862248336,0.0,,0.0,0.0,0.185091777976,0.982721239073
1675249958571937075,,12.2698876375,6.8875741667,0.0,,0.0,0.0,0.182047602759,0.983289718409
1675249958661882534,,12.340937845,6.90792202077,0.0,,0.0,0.0,0.178519851422,0.98393631026
1675249958761861171,,12.4153989616,6.93586835338,0.0,,0.0,0.0,0.178245719506,0.983986007765
1675249958861940320,,12.489921241,6.96379300544,0.0,,0.0,0.0,0.178483188097,0.983942961541
1675249958982022431,,12.5626384054,6.99468452085,0.0,,0.0,0.0,0.183380767709,0.983041959448
1675249959072025339,,12.6371355245,7.02352491114,0.0,,0.0,0.0,0.184802042337,0.982775765446
1675249959172223655,,12.711529336,7.05256806862,0.0,,0.0,0.0,0.186541520878,0.982447077958
1675249959271919878,,12.785711289,7.08255889079,0.0,,0.0,0.0,0.189553754344,0.98187034491
1675249959372062592,,12.8598172179,7.11234543059,0.0,,0.0,0.0,0.191351802636,0.98152151664
1675249959461854540,,12.9324613167,7.13966025895,0.0,,0.0,0.0,0.190994337221,0.981591138484
1675249959562108968,,13.0067813639,7.16973339501,0.0,,0.0,0.0,0.191833566545,0.981427471975
1675249959662052331,,13.0804807901,7.19969240777,0.0,,0.0,0.0,0.192171332213,0.981361390659
1675249959782096003,,13.1537637066,7.22944044752,0.0,,0.0,0.0,0.19293365677,0.981211803886
1675249959871919431,,13.2276186036,7.25961080212,0.0,,0.0,0.0,0.191837073782,0.98142678643
1675249959971985878,,13.3014547664,7.28956418236,0.0,,0.0,0.0,0.189802787801,0.981822235307
1675249960071949320,,13.379309315,7.32131772888,0.0,,0.0,0.0,0.187674844574,0.982231211433
1675249960161928662,,13.4535852852,7.35067678571,0.0,,0.0,0.0,0.184463174228,0.982839426027
1675249960262004368,,13.5282572089,7.37959007034,0.0,,0.0,0.0,0.180259047483,0.98361917214
1675249960362384443,,13.6107934238,7.40727496097,0.0,,0.0,0.0,0.175323520027,0.984510875169
1675249960482102475,,13.685360397,7.43458050027,0.0,,0.0,0.0,0.170285007544,0.985394852943
1675249960582087344,,13.7570439376,7.4626667309,0.0,,0.0,0.0,0.165719785677,0.986172881718
1675249960672003975,,13.832430862,7.48854054039,0.0,,0.0,0.0,0.158200916485,0.987406942463
1675249960771920516,,13.9083655391,7.51326189805,0.0,,0.0,0.0,0.148575490623,0.988901068654
1675249960872061465,,13.9860352996,7.53339417821,0.0,,0.0,0.0,0.136069576602,0.990699283498
1675249960961900685,,14.0633134385,7.55467570481,0.0,,0.0,0.0,0.12254055058,0.992463507371
1675249961061861461,,14.1409072524,7.5737608363,0.0,,0.0,0.0,0.109431558754,0.993994332956
1675249961162012899,,14.2267782343,7.58535219023,0.0,,0.0,0.0,0.0932593306706,0.995641851894
1675249961281957233,,14.3025505773,7.59941212589,0.0,,0.0,0.0,0.0805813632461,0.996748034308
1675249961372242855,,14.3772047926,7.61125265996,0.0,,0.0,0.0,0.0680569666955,0.997681436774
1675249961472744774,,14.4465465328,7.61615626899,0.0,,0.0,0.0,0.0547962369554,0.998497557541
1675249961571997604,,14.5183794256,7.62382011989,0.0,,0.0,0.0,0.0425218748403,0.999095536053
1675249961662401631,,14.5898122988,7.62966770506,0.0,,0.0,0.0,0.0303238785226,0.999540125453
1675249961761844650,,14.6685858285,7.6300997271,0.0,,0.0,0.0,0.0158170408644,0.999874902784
1675249961861923019,,14.7383864259,7.63201706061,0.0,,0.0,0.0,0.0033143387306,0.999994507564
1675249961982023908,,14.8059157106,7.6322155131,0.0,,0.0,0.0,-0.0091130423564,0.999958475367
1675249962082126505,,14.8748893162,7.62957398273,0.0,,0.0,0.0,-0.0222912147723,0.999751520001
1675249962172025914,,14.9361601525,7.62665835567,0.0,,0.0,0.0,-0.0319880777082,0.999488250498
1675249962272063735,,14.9942280141,7.62280114657,0.0,,0.0,0.0,-0.0400359061545,0.999198241701
1675249962371912368,,15.0467551349,7.61564403218,0.0,,0.0,0.0,-0.0452039227313,0.998977780218
1675249962461964774,,15.0918163708,7.61158240402,0.0,,0.0,0.0,-0.0458006446725,0.998950599853
1675249962561948525,,15.1303307487,7.60810293889,0.0,,0.0,0.0,-0.0425908234068,0.999092599193
1675249962661923926,,15.1634377925,7.60539875322,0.0,,0.0,0.0,-0.0342610686926,0.999412917253
1675249962782162546,,15.195234921,7.60331916641,0.0,,0.0,0.0,-0.0247402988739,0.999693911961
1675249962872018158,,15.2266036597,7.60185082912,0.0,,0.0,0.0,-0.0154322493791,0.999880915749
1675249962971957278,,15.2624871703,7.6058527172,0.0,,0.0,0.0,-0.00468970369146,0.999989003279
1675249963071982508,,15.2928198383,7.60562820465,0.0,,0.0,0.0,0.00245733911902,0.999996980738
1675249963161864469,,15.3233104671,7.60581876352,0.0,,0.0,0.0,0.00787966765709,0.999968954937
1675249963261899235,,15.3534587006,7.6063194518,0.0,,0.0,0.0,0.0115463417794,0.999933338774
1675249963362120671,,15.383540109,7.60700690552,0.0,,0.0,0.0,0.0127460176628,0.999918766217
1675249963482315799,,15.4134861744,7.6077909396,0.0,,0.0,0.0,0.014357903673,0.999896919988
1675249963582046457,,15.4425214931,7.60864482019,0.0,,0.0,0.0,0.016183625188,0.999869036562
1675249963671912835,,15.4757257247,7.60238306899,0.0,,0.0,0.0,0.0179413336459,0.99983904132
1675249963771943801,,15.4987187967,7.60321312131,0.0,,0.0,0.0,0.0194617072164,0.999810603041
1675249963872016535,,15.5152658645,7.60386114707,0.0,,0.0,0.0,0.0211383035671,0.999776561099
1675249963962247566,,15.5263991492,7.60433567945,0.0,,0.0,0.0,0.0236183755087,0.999721047262
1675249964062019325,,15.5307855312,7.60454529371,0.0,,0.0,0.0,0.0276755263702,0.99961695926
1675249964161978817,,15.5304303271,7.60452622095,0.0,,0.0,0.0,0.0257270921454,0.999669003586
1675249964282208285,,15.5305881001,7.60453440241,0.0,,0.0,0.0,0.0265506226131,0.999647470081
1675249964372319518,,15.5305793951,7.6045339465,0.0,,0.0,0.0,0.0260069373412,0.999661762403
1675249964471936986,,15.5305472499,7.60453226295,0.0,,0.0,0.0,0.0262529604796,0.999655331635
1675249964572253107,,15.5305472499,7.60453226295,0.0,,0.0,0.0,0.0262514840718,0.999655370407
1675249964672320768,,15.5305472499,7.60453226295,0.0,,0.0,0.0,0.0262514840718,0.999655370407
1675249964762276644,,15.5305472499,7.60453226295,0.0,,0.0,0.0,0.0262514840718,0.999655370407
1675249964862298823,,15.5305472499,7.60453226295,0.0,,0.0,0.0,0.0262514840718,0.999655370407
1675249964982402711,,15.5305472499,7.60453226295,0.0,,0.0,0.0,0.0262514840718,0.999655370407
1675249965082356707,,15.5305472499,7.60453226295,0.0,,0.0,0.0,0.0262514840718,0.999655370407
1675249965172101391,,15.5305472499,7.60453226295,0.0,,0.0,0.0,0.0262514840718,0.999655370407
1675249965272436688,,15.5305472499,7.60453226295,0.0,,0.0,0.0,0.0262514840718,0.999655370407
1675249965372139309,,15.5305472499,7.60453226295,0.0,,0.0,0.0,0.0262514840718,0.999655370407
1675249965462213058,,15.5305472499,7.60453226295,0.0,,0.0,0.0,0.0262514840718,0.999655370407
1675249965562128041,,15.5305472499,7.60453226295,0.0,,0.0,0.0,0.0262514840718,0.999655370407
1675249965662281718,,15.5305472499,7.60453226295,0.0,,0.0,0.0,0.0262514840718,0.999655370407
1675249965782345743,,15.5305472499,7.60453226295,0.0,,0.0,0.0,0.0262514840718,0.999655370407
1675249965882285365,,15.5305472499,7.60453226295,0.0,,0.0,0.0,0.0262514840718,0.999655370407
1675249965972310175,,15.5305472499,7.60453226295,0.0,,0.0,0.0,0.0262514840718,0.999655370407
1675249966072404855,,15.5305472499,7.60453226295,0.0,,0.0,0.0,0.0262514840718,0.999655370407
1675249966162248851,,15.5305472499,7.60453226295,0.0,,0.0,0.0,0.0262514840718,0.999655370407
1675249966262218796,,15.5305472499,7.60453226295,0.0,,0.0,0.0,0.0262514840718,0.999655370407
1675249966362360339,,15.5305472499,7.60453226295,0.0,,0.0,0.0,0.0262514840718,0.999655370407
1675249966482193220,,15.5305472499,7.60453226295,0.0,,0.0,0.0,0.0262514840718,0.999655370407
1675249966582359918,,15.5305472499,7.60453226295,0.0,,0.0,0.0,0.0262514840718,0.999655370407
1675249966672786354,,15.5305472499,7.60453226295,0.0,,0.0,0.0,0.0262514840718,0.999655370407
1675249966772121691,,15.5305472499,7.60453226295,0.0,,0.0,0.0,0.0262514840718,0.999655370407
1675249966872591946,,15.5305472499,7.60453226295,0.0,,0.0,0.0,0.0262514840718,0.999655370407
1675249966962588862,,15.5305472499,7.60453226295,0.0,,0.0,0.0,0.0262514840718,0.999655370407
1675249967062244424,,15.5305472499,7.60453226295,0.0,,0.0,0.0,0.0262514840718,0.999655370407
1675249967162129915,,15.5305472499,7.60453226295,0.0,,0.0,0.0,0.0262514840718,0.999655370407
1675249967282339281,,15.5305472499,7.60453226295,0.0,,0.0,0.0,0.0262514840718,0.999655370407
1675249967372408290,,15.5305472499,7.60453226295,0.0,,0.0,0.0,0.0262514840718,0.999655370407
1675249967472237471,,15.5305472499,7.60453226295,0.0,,0.0,0.0,0.0262514840718,0.999655370407
1675249967572173838,,15.5305472499,7.60453226295,0.0,,0.0,0.0,0.0262514840718,0.999655370407
1675249967672310336,,15.5305472499,7.60453226295,0.0,,0.0,0.0,0.0262514840718,0.999655370407
1675249967761944427,,15.5305472499,7.60453226295,0.0,,0.0,0.0,0.0262514840718,0.999655370407
1675249967862069531,,15.5305472499,7.60453226295,0.0,,0.0,0.0,0.0262514840718,0.999655370407
1675249967962241360,,15.5305472499,7.60453226295,0.0,,0.0,0.0,0.0262514840718,0.999655370407
1675249968082402029,,15.5305472499,7.60453226295,0.0,,0.0,0.0,0.0262514840718,0.999655370407
1675249968172132636,,15.5305472499,7.60453226295,0.0,,0.0,0.0,0.0262514840718,0.999655370407
1675249968272473816,,15.5305472499,7.60453226295,0.0,,0.0,0.0,0.0262514840718,0.999655370407
1675249968372075322,,15.5305472499,7.60453226295,0.0,,0.0,0.0,0.0262514840718,0.999655370407
1675249968462864991,,15.5305472499,7.60453226295,0.0,,0.0,0.0,0.0262514840718,0.999655370407
1675249968562308443,,15.5305472499,7.60453226295,0.0,,0.0,0.0,0.0262514840718,0.999655370407
1675249968662077264,,15.5305472499,7.60453226295,0.0,,0.0,0.0,0.0262514840718,0.999655370407
1675249968782316832,,15.5305472499,7.60453226295,0.0,,0.0,0.0,0.0262514840718,0.999655370407
1675249968882300128,,15.5305472499,7.60453226295,0.0,,0.0,0.0,0.0262514840718,0.999655370407
1675249968972251245,,15.5305472499,7.60453226295,0.0,,0.0,0.0,0.0262514840718,0.999655370407
1675249969072204277,,15.5305472499,7.60453226295,0.0,,0.0,0.0,0.0262514840718,0.999655370407
1675249969172173782,,15.5305472499,7.60453226295,0.0,,0.0,0.0,0.0262514840718,0.999655370407
1675249969262132308,,15.5305472499,7.60453226295,0.0,,0.0,0.0,0.0262514840718,0.999655370407
1675249969362226106,,15.5305472499,7.60453226295,0.0,,0.0,0.0,0.0262514840718,0.999655370407
1675249969462155380,,15.5305472499,7.60453226295,0.0,,0.0,0.0,0.0262514840718,0.999655370407
1675249969582176225,,15.5305472499,7.60453226295,0.0,,0.0,0.0,0.0262514840718,0.999655370407
1675249969671955910,,15.5305472499,7.60453226295,0.0,,0.0,0.0,0.0262514840718,0.999655370407
1675249969771981758,,15.5305472499,7.60453226295,0.0,,0.0,0.0,0.0262514840718,0.999655370407
1675249969871981319,,15.5305472499,7.60453226295,0.0,,0.0,0.0,0.0262514840718,0.999655370407
1675249969961936503,,15.5305472499,7.60453226295,0.0,,0.0,0.0,0.0262514840718,0.999655370407
1675249970061917964,,15.5305472499,7.60453226295,0.0,,0.0,0.0,0.0262514840718,0.999655370407
1675249970161975860,,15.5305472499,7.60453226295,0.0,,0.0,0.0,0.0262514840718,0.999655370407
1675249970282095341,,15.5305472499,7.60453226295,0.0,,0.0,0.0,0.0262514840718,0.999655370407
1675249970382497108,,15.5306476041,7.60453756088,0.0,,0.0,0.0,0.0264486367403,0.999650173618
1675249970472059640,,15.5309936055,7.60455600027,0.0,,0.0,0.0,0.0270828117269,0.999633193381
1675249970571955696,,15.5314781571,7.60458234304,0.0,,0.0,0.0,0.0277432383326,0.999615082283
1675249970671903860,,15.5340614916,7.60472783865,0.0,,0.0,0.0,0.0287897589412,0.99958548898
1675249970761970923,,15.5400304179,7.60507433927,0.0,,0.0,0.0,0.0305896488552,0.999532027192
1675249970861974018,,15.5491777625,7.60564310331,0.0,,0.0,0.0,0.0326519988033,0.999466781326
1675249970961912123,,15.5613727435,7.60645434492,0.0,,0.0,0.0,0.0355716919664,0.999367127101
1675249971082218478,,15.57646968,7.607541904,0.0,,0.0,0.0,0.0386142327851,0.999254192399
1675249971172210577,,15.595055647,7.60900289529,0.0,,0.0,0.0,0.0417851110971,0.99912662085
1675249971272034246,,15.6169966143,7.61087073927,0.0,,0.0,0.0,0.0455729139973,0.99896101501
1675249971372196499,,15.641895044,7.6131665482,0.0,,0.0,0.0,0.0487253874515,0.99881221289
1675249971471959373,,15.6650068837,7.61556524428,0.0,,0.0,0.0,0.0526156586198,0.998614836896
1675249971562009749,,15.69352065,7.61862663881,0.0,,0.0,0.0,0.0564845160601,0.998403475277
1675249971662087199,,15.7237216144,7.62209266029,0.0,,0.0,0.0,0.0603094573768,0.99817972798
1675249971782172791,,15.7561189099,7.62605650496,0.0,,0.0,0.0,0.0639475278316,0.997953262274
1675249971882154876,,15.7921894214,7.63072673614,0.0,,0.0,0.0,0.0672767310934,0.997734354151
1675249971972020713,,15.8303563749,7.63593118428,0.0,,0.0,0.0,0.0702982299391,0.997526019143
1675249972071917930,,15.873320261,7.64322127933,0.0,,0.0,0.0,0.0728922984885,0.997339818127
1675249972172107349,,15.9130960551,7.6491141342,0.0,,0.0,0.0,0.0765040657685,0.997069269369
1675249972262000023,,15.9530352127,7.65532636342,0.0,,0.0,0.0,0.080090348508,0.996787608308
1675249972362360143,,15.9935047949,7.66192732771,0.0,,0.0,0.0,0.0836760292824,0.996493011578
1675249972461975901,,16.0367608321,7.66928610235,0.0,,0.0,0.0,0.086962955152,0.996211546024
1675249972582498177,,16.0828785692,7.67642415391,0.0,,0.0,0.0,0.0882912916152,0.996094698221
1675249972672255319,,16.1330855711,7.68545561332,0.0,,0.0,0.0,0.0921939314656,0.995741070259
1675249972771948865,,16.186329756,7.69547897383,0.0,,0.0,0.0,0.0963510476829,0.995347414529
1675249972871901831,,16.2421225765,7.70648351744,0.0,,0.0,0.0,0.101178956105,0.99486824195
1675249972961941392,,16.2974341036,7.72399487378,0.0,,0.0,0.0,0.106259188149,0.994338465983
1675249973061847162,,16.3579934739,7.7371792488,0.0,,0.0,0.0,0.110250070211,0.993903879668
1675249973162083871,,16.4201339696,7.75115179139,0.0,,0.0,0.0,0.112610102193,0.99363925289
1675249973282117907,,16.4839522577,7.76581601714,0.0,,0.0,0.0,0.113745923248,0.993509871589
1675249973382068507,,16.552223395,7.78616546435,0.0,,0.0,0.0,0.114559270951,0.993416414923
1675249973472184550,,16.6173348378,7.80131837193,0.0,,0.0,0.0,0.112519542271,0.993649511954
1675249973572025882,,16.6827087173,7.81620856554,0.0,,0.0,0.0,0.108189116399,0.99413033104
1675249973671925799,,16.7486424841,7.8252366798,0.0,,0.0,0.0,0.100569815239,0.9949300037
1675249973761996401,,16.8147122087,7.83847218465,0.0,,0.0,0.0,0.0898626771567,0.995954165238
1675249973861936156,,16.8809420751,7.85020036253,0.0,,0.0,0.0,0.076546217107,0.997066034246
1675249973961930966,,16.9448590081,7.85825292629,0.0,,0.0,0.0,0.0634032300157,0.997987991122
1675249974082293818,,17.0107116859,7.86633099874,0.0,,0.0,0.0,0.0489123272787,0.998803075806
1675249974182364533,,17.0746227847,7.87227421459,0.0,,0.0,0.0,0.0327979843886,0.999462001389
1675249974272087724,,17.1345567425,7.87097395208,0.0,,0.0,0.0,0.0126063551645,0.999920536748
1675249974371942619,,17.1907315099,7.87205265163,0.0,,0.0,0.0,-0.00635466304902,0.999979808925
1675249974472197198,,17.2428463201,7.87109720778,0.0,,0.0,0.0,-0.0255996571603,0.999672275075
1675249974561881017,,17.2903987153,7.86836943229,0.0,,0.0,0.0,-0.0462415480461,0.998930287475
1675249974662003339,,17.3299983697,7.87106992461,0.0,,0.0,0.0,-0.0626538889746,0.998035315105
1675249974782157693,,17.3699358582,7.86582370342,0.0,,0.0,0.0,-0.0828044114335,0.99656581792
1675249974882229110,,17.4079465123,7.859191015,0.0,,0.0,0.0,-0.103713819441,0.994607180578
1675249974972077892,,17.4413987545,7.85189423042,0.0,,0.0,0.0,-0.126450005967,0.991972981482
1675249975072131729,,17.4703754874,7.84426379724,0.0,,0.0,0.0,-0.144891884515,0.989447493201
1675249975171931320,,17.496842639,7.8326296497,0.0,,0.0,0.0,-0.162344509241,0.986734138621
1675249975262193401,,17.5213427364,7.8242147715,0.0,,0.0,0.0,-0.17781265301,0.98406435787
